{
  "country": {
    "id": "india",
    "code": "IN",
    "name": "India",
    "regionId": "asia",
    "cityCount": 462,
    "stationCount": 868,
    "sourceCount": 2,
    "sources": [
      {
        "name": "MIB operational private FM channels PDF",
        "url": "https://mib.gov.in/sites/default/files/2026-02/391_operationalchannels_01022026.pdf"
      },
      {
        "name": "Prasar Bharati Akashvani stations PDF",
        "url": "https://prasarbharati.gov.in/wp-content/uploads/2025/12/Akashvani_Stations.pdf"
      }
    ],
    "lastImportedAt": "2026-03-24",
    "coverageStatus": "partial",
    "coverageTier": "official-substantial",
    "coverageScope": "national",
    "sourceQuality": "mixed",
    "hasOfficialImporter": true,
    "notesPath": "docs/fm/india-source-notes.md",
    "coverageNotes": "Strong national baseline from MIB and Prasar Bharati, but not yet a complete all-broadcaster registry.",
    "coverageScore": 72
  },
  "cities": [
    {
      "id": "in-abu",
      "name": "Ābu",
      "countryId": "india",
      "timezone": "Asia/Kolkata",
      "latitude": 24.59365,
      "longitude": 72.71756,
      "stationCount": 1
    },
    {
      "id": "in-achalpur",
      "name": "Achalpur",
      "countryId": "india",
      "timezone": "Asia/Kolkata",
      "latitude": 21.25665,
      "longitude": 77.51006,
      "stationCount": 1
    },
    {
      "id": "in-adilabad",
      "name": "Ādilābād",
      "countryId": "india",
      "timezone": "Asia/Kolkata",
      "latitude": 19.67203,
      "longitude": 78.5359,
      "stationCount": 1
    },
    {
      "id": "in-adoni",
      "name": "Adoni",
      "countryId": "india",
      "timezone": "Asia/Kolkata",
      "latitude": 15.62788,
      "longitude": 77.27495,
      "stationCount": 1
    },
    {
      "id": "in-agartala",
      "name": "Agartala",
      "countryId": "india",
      "timezone": "Asia/Kolkata",
      "latitude": 23.83605,
      "longitude": 91.27939,
      "stationCount": 3
    },
    {
      "id": "in-agra",
      "name": "Agra",
      "countryId": "india",
      "timezone": "Asia/Kolkata",
      "latitude": 27.18333,
      "longitude": 78.01667,
      "stationCount": 5
    },
    {
      "id": "in-ahilyanagar",
      "name": "Ahilyanagar",
      "countryId": "india",
      "timezone": "Asia/Kolkata",
      "latitude": 19.09457,
      "longitude": 74.73843,
      "stationCount": 4
    },
    {
      "id": "in-ahilyanagar-2",
      "name": "Ahilyanagar",
      "countryId": "india",
      "timezone": "Asia/Kolkata",
      "latitude": 19.09457,
      "longitude": 74.73843,
      "stationCount": 1
    },
    {
      "id": "in-ahiri",
      "name": "Ahiri",
      "countryId": "india",
      "timezone": "Asia/Kolkata",
      "latitude": 19.41386,
      "longitude": 80.00359,
      "stationCount": 1
    },
    {
      "id": "in-ahmedabad",
      "name": "Ahmedabad",
      "countryId": "india",
      "timezone": "Asia/Kolkata",
      "latitude": 23.02579,
      "longitude": 72.58727,
      "stationCount": 7
    },
    {
      "id": "in-ahwa",
      "name": "Ahwa",
      "countryId": "india",
      "timezone": "Asia/Kolkata",
      "latitude": 20.75718,
      "longitude": 73.68626,
      "stationCount": 1
    },
    {
      "id": "in-aizawl",
      "name": "Aizawl",
      "countryId": "india",
      "timezone": "Asia/Kolkata",
      "latitude": 23.72894,
      "longitude": 92.71791,
      "stationCount": 2
    },
    {
      "id": "in-aizawl-2",
      "name": "Aizawl",
      "countryId": "india",
      "timezone": "Asia/Kolkata",
      "latitude": 23.72894,
      "longitude": 92.71791,
      "stationCount": 3
    },
    {
      "id": "in-ajmer",
      "name": "Ajmer",
      "countryId": "india",
      "timezone": "Asia/Kolkata",
      "latitude": 26.4521,
      "longitude": 74.63867,
      "stationCount": 5
    },
    {
      "id": "in-akola",
      "name": "Akola",
      "countryId": "india",
      "timezone": "Asia/Kolkata",
      "latitude": 20.70957,
      "longitude": 76.9981,
      "stationCount": 5
    },
    {
      "id": "in-alappuzha",
      "name": "Alappuzha",
      "countryId": "india",
      "timezone": "Asia/Kolkata",
      "latitude": 9.49004,
      "longitude": 76.3264,
      "stationCount": 2
    },
    {
      "id": "in-aligarh",
      "name": "Alīgarh",
      "countryId": "india",
      "timezone": "Asia/Kolkata",
      "latitude": 27.88145,
      "longitude": 78.07464,
      "stationCount": 5
    },
    {
      "id": "in-alipur-duar",
      "name": "Alīpur Duār",
      "countryId": "india",
      "timezone": "Asia/Kolkata",
      "latitude": 26.4835,
      "longitude": 89.52286,
      "stationCount": 1
    },
    {
      "id": "in-almora",
      "name": "Almora",
      "countryId": "india",
      "timezone": "Asia/Kolkata",
      "latitude": 29.59713,
      "longitude": 79.65911,
      "stationCount": 2
    },
    {
      "id": "in-along",
      "name": "Along",
      "countryId": "india",
      "timezone": "Asia/Kolkata",
      "latitude": 28.16951,
      "longitude": 94.8006,
      "stationCount": 1
    },
    {
      "id": "in-alwar",
      "name": "Alwar",
      "countryId": "india",
      "timezone": "Asia/Kolkata",
      "latitude": 27.56246,
      "longitude": 76.625,
      "stationCount": 1
    },
    {
      "id": "in-amarpur",
      "name": "Amarpur",
      "countryId": "india",
      "timezone": "Asia/Kolkata",
      "latitude": 25.03967,
      "longitude": 86.90247,
      "stationCount": 1
    },
    {
      "id": "in-ambala",
      "name": "Ambāla",
      "countryId": "india",
      "timezone": "Asia/Kolkata",
      "latitude": 30.36099,
      "longitude": 76.79782,
      "stationCount": 1
    },
    {
      "id": "in-ambasa",
      "name": "Āmbāsa",
      "countryId": "india",
      "timezone": "Asia/Kolkata",
      "latitude": 23.936,
      "longitude": 91.85436,
      "stationCount": 1
    },
    {
      "id": "in-ambikapur",
      "name": "Ambikāpur",
      "countryId": "india",
      "timezone": "Asia/Kolkata",
      "latitude": 23.11892,
      "longitude": 83.19537,
      "stationCount": 1
    },
    {
      "id": "in-amethi",
      "name": "Amethī",
      "countryId": "india",
      "timezone": "Asia/Kolkata",
      "latitude": 26.15696,
      "longitude": 81.80519,
      "stationCount": 1
    },
    {
      "id": "in-amravati",
      "name": "Amravati",
      "countryId": "india",
      "timezone": "Asia/Kolkata",
      "latitude": 20.93333,
      "longitude": 77.75,
      "stationCount": 2
    },
    {
      "id": "in-amreli",
      "name": "Amreli",
      "countryId": "india",
      "timezone": "Asia/Kolkata",
      "latitude": 21.59983,
      "longitude": 71.21169,
      "stationCount": 1
    },
    {
      "id": "in-amritsar",
      "name": "Amritsar",
      "countryId": "india",
      "timezone": "Asia/Kolkata",
      "latitude": 31.62234,
      "longitude": 74.87534,
      "stationCount": 5
    },
    {
      "id": "in-anantapur",
      "name": "Anantapur",
      "countryId": "india",
      "timezone": "Asia/Kolkata",
      "latitude": 14.67784,
      "longitude": 77.60813,
      "stationCount": 1
    },
    {
      "id": "in-angul",
      "name": "Angul",
      "countryId": "india",
      "timezone": "Asia/Kolkata",
      "latitude": 20.84089,
      "longitude": 85.10192,
      "stationCount": 1
    },
    {
      "id": "in-anupgarh",
      "name": "Anūpgarh",
      "countryId": "india",
      "timezone": "Asia/Kolkata",
      "latitude": 29.19111,
      "longitude": 73.20861,
      "stationCount": 1
    },
    {
      "id": "in-asansol",
      "name": "Āsansol",
      "countryId": "india",
      "timezone": "Asia/Kolkata",
      "latitude": 23.68333,
      "longitude": 86.98333,
      "stationCount": 3
    },
    {
      "id": "in-auraiya",
      "name": "Auraiya",
      "countryId": "india",
      "timezone": "Asia/Kolkata",
      "latitude": 26.46517,
      "longitude": 79.50918,
      "stationCount": 1
    },
    {
      "id": "in-aurangabad",
      "name": "Aurangabad",
      "countryId": "india",
      "timezone": "Asia/Kolkata",
      "latitude": 19.87757,
      "longitude": 75.34226,
      "stationCount": 6
    },
    {
      "id": "in-ayodhya",
      "name": "Ayodhya",
      "countryId": "india",
      "timezone": "Asia/Kolkata",
      "latitude": 26.79909,
      "longitude": 82.2047,
      "stationCount": 1
    },
    {
      "id": "in-bagalkot",
      "name": "Bagalkot",
      "countryId": "india",
      "timezone": "Asia/Kolkata",
      "latitude": 16.18673,
      "longitude": 75.69614,
      "stationCount": 1
    },
    {
      "id": "in-bageshwar",
      "name": "Bāgeshwar",
      "countryId": "india",
      "timezone": "Asia/Kolkata",
      "latitude": 29.83738,
      "longitude": 79.77161,
      "stationCount": 1
    },
    {
      "id": "in-balaghat",
      "name": "Bālāghāt",
      "countryId": "india",
      "timezone": "Asia/Kolkata",
      "latitude": 21.8156,
      "longitude": 80.18845,
      "stationCount": 1
    },
    {
      "id": "in-balangir",
      "name": "Balāngīr",
      "countryId": "india",
      "timezone": "Asia/Kolkata",
      "latitude": 20.70419,
      "longitude": 83.49029,
      "stationCount": 1
    },
    {
      "id": "in-baliguda",
      "name": "Baliguda",
      "countryId": "india",
      "timezone": "Asia/Kolkata",
      "latitude": 20.19966,
      "longitude": 83.90938,
      "stationCount": 1
    },
    {
      "id": "in-ballari",
      "name": "Ballari",
      "countryId": "india",
      "timezone": "Asia/Kolkata",
      "latitude": 15.14205,
      "longitude": 76.92398,
      "stationCount": 1
    },
    {
      "id": "in-balod",
      "name": "Balod",
      "countryId": "india",
      "timezone": "Asia/Kolkata",
      "latitude": 20.73081,
      "longitude": 81.20578,
      "stationCount": 1
    },
    {
      "id": "in-balrampur",
      "name": "Balrāmpur",
      "countryId": "india",
      "timezone": "Asia/Kolkata",
      "latitude": 27.42949,
      "longitude": 82.18545,
      "stationCount": 1
    },
    {
      "id": "in-balurghat",
      "name": "Bālurghāt",
      "countryId": "india",
      "timezone": "Asia/Kolkata",
      "latitude": 25.22099,
      "longitude": 88.77732,
      "stationCount": 1
    },
    {
      "id": "in-banda",
      "name": "Bānda",
      "countryId": "india",
      "timezone": "Asia/Kolkata",
      "latitude": 25.47758,
      "longitude": 80.33491,
      "stationCount": 1
    },
    {
      "id": "in-banka",
      "name": "Bānka",
      "countryId": "india",
      "timezone": "Asia/Kolkata",
      "latitude": 24.88091,
      "longitude": 86.92257,
      "stationCount": 1
    },
    {
      "id": "in-banswada",
      "name": "Bānswāda",
      "countryId": "india",
      "timezone": "Asia/Kolkata",
      "latitude": 18.37725,
      "longitude": 77.88007,
      "stationCount": 1
    },
    {
      "id": "in-banswara",
      "name": "Bānswāra",
      "countryId": "india",
      "timezone": "Asia/Kolkata",
      "latitude": 23.54109,
      "longitude": 74.4425,
      "stationCount": 1
    },
    {
      "id": "in-baran",
      "name": "Bārān",
      "countryId": "india",
      "timezone": "Asia/Kolkata",
      "latitude": 25.1,
      "longitude": 76.51667,
      "stationCount": 1
    },
    {
      "id": "in-barddhaman",
      "name": "Barddhamān",
      "countryId": "india",
      "timezone": "Asia/Kolkata",
      "latitude": 23.25572,
      "longitude": 87.85691,
      "stationCount": 1
    },
    {
      "id": "in-bareilly",
      "name": "Bareilly",
      "countryId": "india",
      "timezone": "Asia/Kolkata",
      "latitude": 28.36678,
      "longitude": 79.43167,
      "stationCount": 5
    },
    {
      "id": "in-bargarh",
      "name": "Bargarh",
      "countryId": "india",
      "timezone": "Asia/Kolkata",
      "latitude": 21.33348,
      "longitude": 83.61905,
      "stationCount": 1
    },
    {
      "id": "in-barharwa",
      "name": "Barharwā",
      "countryId": "india",
      "timezone": "Asia/Kolkata",
      "latitude": 24.85711,
      "longitude": 87.77896,
      "stationCount": 1
    },
    {
      "id": "in-baripada",
      "name": "Baripāda",
      "countryId": "india",
      "timezone": "Asia/Kolkata",
      "latitude": 21.93458,
      "longitude": 86.72852,
      "stationCount": 1
    },
    {
      "id": "in-barpeta",
      "name": "Barpeta",
      "countryId": "india",
      "timezone": "Asia/Kolkata",
      "latitude": 26.32293,
      "longitude": 91.00632,
      "stationCount": 1
    },
    {
      "id": "in-barwani",
      "name": "Barwāni",
      "countryId": "india",
      "timezone": "Asia/Kolkata",
      "latitude": 22.03232,
      "longitude": 74.89982,
      "stationCount": 1
    },
    {
      "id": "in-basar",
      "name": "Bāsār",
      "countryId": "india",
      "timezone": "Asia/Kolkata",
      "latitude": 27.99008,
      "longitude": 94.69451,
      "stationCount": 1
    },
    {
      "id": "in-bathinda",
      "name": "Bathinda",
      "countryId": "india",
      "timezone": "Asia/Kolkata",
      "latitude": 30.20747,
      "longitude": 74.93893,
      "stationCount": 1
    },
    {
      "id": "in-beed",
      "name": "Beed",
      "countryId": "india",
      "timezone": "Asia/Kolkata",
      "latitude": 18.98921,
      "longitude": 75.75634,
      "stationCount": 1
    },
    {
      "id": "in-begusarai",
      "name": "Begusarai",
      "countryId": "india",
      "timezone": "Asia/Kolkata",
      "latitude": 25.41853,
      "longitude": 86.13389,
      "stationCount": 1
    },
    {
      "id": "in-bela",
      "name": "Bela",
      "countryId": "india",
      "timezone": "Asia/Kolkata",
      "latitude": 25.92058,
      "longitude": 81.99629,
      "stationCount": 1
    },
    {
      "id": "in-belonia",
      "name": "Belonia",
      "countryId": "india",
      "timezone": "Asia/Kolkata",
      "latitude": 23.25178,
      "longitude": 91.45407,
      "stationCount": 1
    },
    {
      "id": "in-bengaluru",
      "name": "Bengaluru",
      "countryId": "india",
      "timezone": "Asia/Kolkata",
      "latitude": 12.97194,
      "longitude": 77.59369,
      "stationCount": 11
    },
    {
      "id": "in-bettiah",
      "name": "Bettiah",
      "countryId": "india",
      "timezone": "Asia/Kolkata",
      "latitude": 26.80229,
      "longitude": 84.50311,
      "stationCount": 1
    },
    {
      "id": "in-betul",
      "name": "Betūl",
      "countryId": "india",
      "timezone": "Asia/Kolkata",
      "latitude": 21.90056,
      "longitude": 77.90229,
      "stationCount": 1
    },
    {
      "id": "in-bhadarwah",
      "name": "Bhadarwāh",
      "countryId": "india",
      "timezone": "Asia/Kolkata",
      "latitude": 32.97941,
      "longitude": 75.71723,
      "stationCount": 1
    },
    {
      "id": "in-bhadarwah-2",
      "name": "Bhadarwāh",
      "countryId": "india",
      "timezone": "Asia/Kolkata",
      "latitude": 32.97941,
      "longitude": 75.71723,
      "stationCount": 1
    },
    {
      "id": "in-bhagalpur",
      "name": "Bhāgalpur",
      "countryId": "india",
      "timezone": "Asia/Kolkata",
      "latitude": 25.24446,
      "longitude": 86.97183,
      "stationCount": 1
    },
    {
      "id": "in-bharatpur",
      "name": "Bharatpur",
      "countryId": "india",
      "timezone": "Asia/Kolkata",
      "latitude": 27.21731,
      "longitude": 77.49009,
      "stationCount": 1
    },
    {
      "id": "in-bharuch",
      "name": "Bharūch",
      "countryId": "india",
      "timezone": "Asia/Kolkata",
      "latitude": 21.69482,
      "longitude": 72.9805,
      "stationCount": 3
    },
    {
      "id": "in-bhavnagar",
      "name": "Bhavnagar",
      "countryId": "india",
      "timezone": "Asia/Kolkata",
      "latitude": 21.76287,
      "longitude": 72.15331,
      "stationCount": 3
    },
    {
      "id": "in-bhawanipatna",
      "name": "Bhawānipatna",
      "countryId": "india",
      "timezone": "Asia/Kolkata",
      "latitude": 19.90717,
      "longitude": 83.16697,
      "stationCount": 1
    },
    {
      "id": "in-bhilwara",
      "name": "Bhilwara",
      "countryId": "india",
      "timezone": "Asia/Kolkata",
      "latitude": 25.34707,
      "longitude": 74.64081,
      "stationCount": 1
    },
    {
      "id": "in-bhinmal",
      "name": "Bhīnmāl",
      "countryId": "india",
      "timezone": "Asia/Kolkata",
      "latitude": 24.99944,
      "longitude": 72.27141,
      "stationCount": 1
    },
    {
      "id": "in-bhiwani",
      "name": "Bhiwāni",
      "countryId": "india",
      "timezone": "Asia/Kolkata",
      "latitude": 28.79304,
      "longitude": 76.13968,
      "stationCount": 1
    },
    {
      "id": "in-bhopal",
      "name": "Bhopal",
      "countryId": "india",
      "timezone": "Asia/Kolkata",
      "latitude": 23.25469,
      "longitude": 77.40289,
      "stationCount": 5
    },
    {
      "id": "in-bhubaneswar",
      "name": "Bhubaneswar",
      "countryId": "india",
      "timezone": "Asia/Kolkata",
      "latitude": 20.27241,
      "longitude": 85.83385,
      "stationCount": 4
    },
    {
      "id": "in-bhuj",
      "name": "Bhuj",
      "countryId": "india",
      "timezone": "Asia/Kolkata",
      "latitude": 23.25397,
      "longitude": 69.66928,
      "stationCount": 2
    },
    {
      "id": "in-bidar",
      "name": "Bidar",
      "countryId": "india",
      "timezone": "Asia/Kolkata",
      "latitude": 17.90802,
      "longitude": 77.51524,
      "stationCount": 1
    },
    {
      "id": "in-bikaner",
      "name": "Bikaner",
      "countryId": "india",
      "timezone": "Asia/Kolkata",
      "latitude": 28.01762,
      "longitude": 73.31495,
      "stationCount": 5
    },
    {
      "id": "in-bilaspur",
      "name": "Bilāspur",
      "countryId": "india",
      "timezone": "Asia/Kolkata",
      "latitude": 22.08005,
      "longitude": 82.15543,
      "stationCount": 5
    },
    {
      "id": "in-bokaro",
      "name": "Bokāro",
      "countryId": "india",
      "timezone": "Asia/Kolkata",
      "latitude": 23.66934,
      "longitude": 86.15161,
      "stationCount": 1
    },
    {
      "id": "in-boleng",
      "name": "Boleng",
      "countryId": "india",
      "timezone": "Asia/Kolkata",
      "latitude": 28.33412,
      "longitude": 94.96232,
      "stationCount": 1
    },
    {
      "id": "in-bomdila",
      "name": "Bomdila",
      "countryId": "india",
      "timezone": "Asia/Kolkata",
      "latitude": 27.26475,
      "longitude": 92.42472,
      "stationCount": 1
    },
    {
      "id": "in-botad",
      "name": "Botad",
      "countryId": "india",
      "timezone": "Asia/Kolkata",
      "latitude": 22.16917,
      "longitude": 71.66671,
      "stationCount": 1
    },
    {
      "id": "in-brahmapur",
      "name": "Brahmapur",
      "countryId": "india",
      "timezone": "Asia/Kolkata",
      "latitude": 19.31151,
      "longitude": 84.7929,
      "stationCount": 1
    },
    {
      "id": "in-bundi",
      "name": "Būndi",
      "countryId": "india",
      "timezone": "Asia/Kolkata",
      "latitude": 25.43855,
      "longitude": 75.63735,
      "stationCount": 1
    },
    {
      "id": "in-burhanpur",
      "name": "Burhānpur",
      "countryId": "india",
      "timezone": "Asia/Kolkata",
      "latitude": 21.30868,
      "longitude": 76.23026,
      "stationCount": 1
    },
    {
      "id": "in-buxar",
      "name": "Buxar",
      "countryId": "india",
      "timezone": "Asia/Kolkata",
      "latitude": 25.57548,
      "longitude": 83.98043,
      "stationCount": 1
    },
    {
      "id": "in-chaibasa",
      "name": "Chāībāsa",
      "countryId": "india",
      "timezone": "Asia/Kolkata",
      "latitude": 22.55038,
      "longitude": 85.80249,
      "stationCount": 1
    },
    {
      "id": "in-chamba",
      "name": "Chamba",
      "countryId": "india",
      "timezone": "Asia/Kolkata",
      "latitude": 32.55531,
      "longitude": 76.12647,
      "stationCount": 1
    },
    {
      "id": "in-champawat",
      "name": "Champawat",
      "countryId": "india",
      "timezone": "Asia/Kolkata",
      "latitude": 29.33501,
      "longitude": 80.07783,
      "stationCount": 1
    },
    {
      "id": "in-chanda",
      "name": "Chānda",
      "countryId": "india",
      "timezone": "Asia/Kolkata",
      "latitude": 19.95076,
      "longitude": 79.29523,
      "stationCount": 1
    },
    {
      "id": "in-chandel",
      "name": "Chandel",
      "countryId": "india",
      "timezone": "Asia/Kolkata",
      "latitude": 24.32987,
      "longitude": 94.00379,
      "stationCount": 1
    },
    {
      "id": "in-chanderi",
      "name": "Chanderi",
      "countryId": "india",
      "timezone": "Asia/Kolkata",
      "latitude": 24.71312,
      "longitude": 78.13809,
      "stationCount": 1
    },
    {
      "id": "in-chandigarh",
      "name": "Chandigarh",
      "countryId": "india",
      "timezone": "Asia/Kolkata",
      "latitude": 30.73629,
      "longitude": 76.7884,
      "stationCount": 6
    },
    {
      "id": "in-changlang",
      "name": "Changlang",
      "countryId": "india",
      "timezone": "Asia/Kolkata",
      "latitude": 27.13177,
      "longitude": 95.73486,
      "stationCount": 1
    },
    {
      "id": "in-chatra",
      "name": "Chatrā",
      "countryId": "india",
      "timezone": "Asia/Kolkata",
      "latitude": 24.20645,
      "longitude": 84.87085,
      "stationCount": 1
    },
    {
      "id": "in-chennai",
      "name": "Chennai",
      "countryId": "india",
      "timezone": "Asia/Kolkata",
      "latitude": 13.08784,
      "longitude": 80.27847,
      "stationCount": 9
    },
    {
      "id": "in-cherrapunjee",
      "name": "Cherrapunjee",
      "countryId": "india",
      "timezone": "Asia/Kolkata",
      "latitude": 25.30089,
      "longitude": 91.69619,
      "stationCount": 1
    },
    {
      "id": "in-chhatarpur",
      "name": "Chhatarpur",
      "countryId": "india",
      "timezone": "Asia/Kolkata",
      "latitude": 24.9177,
      "longitude": 79.58871,
      "stationCount": 1
    },
    {
      "id": "in-chhindwara",
      "name": "Chhindwāra",
      "countryId": "india",
      "timezone": "Asia/Kolkata",
      "latitude": 22.05697,
      "longitude": 78.93958,
      "stationCount": 1
    },
    {
      "id": "in-chitradurga",
      "name": "Chitradurga",
      "countryId": "india",
      "timezone": "Asia/Kolkata",
      "latitude": 14.22262,
      "longitude": 76.40038,
      "stationCount": 1
    },
    {
      "id": "in-chitrakoot-dham",
      "name": "Chitrakoot Dham",
      "countryId": "india",
      "timezone": "Asia/Kolkata",
      "latitude": 25.21473,
      "longitude": 80.91645,
      "stationCount": 1
    },
    {
      "id": "in-chittorgarh",
      "name": "Chittorgarh",
      "countryId": "india",
      "timezone": "Asia/Kolkata",
      "latitude": 24.88963,
      "longitude": 74.62403,
      "stationCount": 1
    },
    {
      "id": "in-churachandpur",
      "name": "Churāchāndpur",
      "countryId": "india",
      "timezone": "Asia/Kolkata",
      "latitude": 24.33353,
      "longitude": 93.66999,
      "stationCount": 1
    },
    {
      "id": "in-churu",
      "name": "Chūru",
      "countryId": "india",
      "timezone": "Asia/Kolkata",
      "latitude": 28.30415,
      "longitude": 74.96718,
      "stationCount": 1
    },
    {
      "id": "in-coimbatore",
      "name": "Coimbatore",
      "countryId": "india",
      "timezone": "Asia/Kolkata",
      "latitude": 11.00555,
      "longitude": 76.96612,
      "stationCount": 5
    },
    {
      "id": "in-cuttack",
      "name": "Cuttack",
      "countryId": "india",
      "timezone": "Asia/Kolkata",
      "latitude": 20.46497,
      "longitude": 85.87927,
      "stationCount": 2
    },
    {
      "id": "in-daman",
      "name": "Daman",
      "countryId": "india",
      "timezone": "Asia/Kolkata",
      "latitude": 20.41431,
      "longitude": 72.83236,
      "stationCount": 2
    },
    {
      "id": "in-damoh",
      "name": "Damoh",
      "countryId": "india",
      "timezone": "Asia/Kolkata",
      "latitude": 23.83312,
      "longitude": 79.4419,
      "stationCount": 1
    },
    {
      "id": "in-daporijo",
      "name": "Daporijo",
      "countryId": "india",
      "timezone": "Asia/Kolkata",
      "latitude": 27.99114,
      "longitude": 94.22955,
      "stationCount": 1
    },
    {
      "id": "in-darjiling",
      "name": "Dārjiling",
      "countryId": "india",
      "timezone": "Asia/Kolkata",
      "latitude": 27.03333,
      "longitude": 88.26667,
      "stationCount": 2
    },
    {
      "id": "in-davangere",
      "name": "Davangere",
      "countryId": "india",
      "timezone": "Asia/Kolkata",
      "latitude": 14.46693,
      "longitude": 75.92694,
      "stationCount": 1
    },
    {
      "id": "in-deesa",
      "name": "Deesa",
      "countryId": "india",
      "timezone": "Asia/Kolkata",
      "latitude": 24.25612,
      "longitude": 72.17928,
      "stationCount": 1
    },
    {
      "id": "in-dehradun",
      "name": "Dehradun",
      "countryId": "india",
      "timezone": "Asia/Kolkata",
      "latitude": 30.32443,
      "longitude": 78.03392,
      "stationCount": 2
    },
    {
      "id": "in-delhi",
      "name": "Delhi",
      "countryId": "india",
      "timezone": "Asia/Kolkata",
      "latitude": 28.65195,
      "longitude": 77.23149,
      "stationCount": 9
    },
    {
      "id": "in-deoghar",
      "name": "Deoghar",
      "countryId": "india",
      "timezone": "Asia/Kolkata",
      "latitude": 24.48983,
      "longitude": 86.69902,
      "stationCount": 1
    },
    {
      "id": "in-deoghar-2",
      "name": "Deoghar",
      "countryId": "india",
      "timezone": "Asia/Kolkata",
      "latitude": 24.48983,
      "longitude": 86.69902,
      "stationCount": 1
    },
    {
      "id": "in-deomali",
      "name": "Deomali",
      "countryId": "india",
      "timezone": "Asia/Kolkata",
      "latitude": 27.1931,
      "longitude": 95.46719,
      "stationCount": 1
    },
    {
      "id": "in-deoria",
      "name": "Deoria",
      "countryId": "india",
      "timezone": "Asia/Kolkata",
      "latitude": 26.50167,
      "longitude": 83.77936,
      "stationCount": 1
    },
    {
      "id": "in-dhanbad",
      "name": "Dhanbad",
      "countryId": "india",
      "timezone": "Asia/Kolkata",
      "latitude": 23.79759,
      "longitude": 86.42992,
      "stationCount": 1
    },
    {
      "id": "in-dharamsala",
      "name": "Dharamsala",
      "countryId": "india",
      "timezone": "Asia/Kolkata",
      "latitude": 32.22006,
      "longitude": 76.32013,
      "stationCount": 1
    },
    {
      "id": "in-dharashiv",
      "name": "Dharashiv",
      "countryId": "india",
      "timezone": "Asia/Kolkata",
      "latitude": 18.18158,
      "longitude": 76.03889,
      "stationCount": 1
    },
    {
      "id": "in-dharmapuri",
      "name": "Dharmapuri",
      "countryId": "india",
      "timezone": "Asia/Kolkata",
      "latitude": 12.1277,
      "longitude": 78.15794,
      "stationCount": 1
    },
    {
      "id": "in-dhubri",
      "name": "Dhubri",
      "countryId": "india",
      "timezone": "Asia/Kolkata",
      "latitude": 26.01856,
      "longitude": 89.98564,
      "stationCount": 2
    },
    {
      "id": "in-dhule",
      "name": "Dhule",
      "countryId": "india",
      "timezone": "Asia/Kolkata",
      "latitude": 20.9013,
      "longitude": 74.77737,
      "stationCount": 4
    },
    {
      "id": "in-dibrugarh",
      "name": "Dibrugarh",
      "countryId": "india",
      "timezone": "Asia/Kolkata",
      "latitude": 27.47989,
      "longitude": 94.90837,
      "stationCount": 2
    },
    {
      "id": "in-dimapur",
      "name": "Dimāpur",
      "countryId": "india",
      "timezone": "Asia/Kolkata",
      "latitude": 25.91174,
      "longitude": 93.7217,
      "stationCount": 1
    },
    {
      "id": "in-diphu",
      "name": "Diphu",
      "countryId": "india",
      "timezone": "Asia/Kolkata",
      "latitude": 25.84341,
      "longitude": 93.43116,
      "stationCount": 1
    },
    {
      "id": "in-diu",
      "name": "Diu",
      "countryId": "india",
      "timezone": "Asia/Kolkata",
      "latitude": 20.71405,
      "longitude": 70.98224,
      "stationCount": 1
    },
    {
      "id": "in-dohad",
      "name": "Dohad",
      "countryId": "india",
      "timezone": "Asia/Kolkata",
      "latitude": 22.83283,
      "longitude": 74.25986,
      "stationCount": 1
    },
    {
      "id": "in-dongargarh",
      "name": "Dongargarh",
      "countryId": "india",
      "timezone": "Asia/Kolkata",
      "latitude": 21.18893,
      "longitude": 80.75459,
      "stationCount": 1
    },
    {
      "id": "in-dumka",
      "name": "Dumka",
      "countryId": "india",
      "timezone": "Asia/Kolkata",
      "latitude": 24.26778,
      "longitude": 87.24855,
      "stationCount": 1
    },
    {
      "id": "in-dungarpur",
      "name": "Dūngarpur",
      "countryId": "india",
      "timezone": "Asia/Kolkata",
      "latitude": 23.84306,
      "longitude": 73.71466,
      "stationCount": 1
    },
    {
      "id": "in-dwarka",
      "name": "Dwārka",
      "countryId": "india",
      "timezone": "Asia/Kolkata",
      "latitude": 22.23944,
      "longitude": 68.96778,
      "stationCount": 1
    },
    {
      "id": "in-erode",
      "name": "Erode",
      "countryId": "india",
      "timezone": "Asia/Kolkata",
      "latitude": 11.3428,
      "longitude": 77.72741,
      "stationCount": 2
    },
    {
      "id": "in-etawah",
      "name": "Etāwah",
      "countryId": "india",
      "timezone": "Asia/Kolkata",
      "latitude": 26.77615,
      "longitude": 79.02133,
      "stationCount": 1
    },
    {
      "id": "in-farakka",
      "name": "Farakka",
      "countryId": "india",
      "timezone": "Asia/Kolkata",
      "latitude": 24.81667,
      "longitude": 87.9,
      "stationCount": 1
    },
    {
      "id": "in-fatehpur",
      "name": "Fatehpur",
      "countryId": "india",
      "timezone": "Asia/Kolkata",
      "latitude": 25.92774,
      "longitude": 80.81266,
      "stationCount": 1
    },
    {
      "id": "in-fazilka",
      "name": "Fazilka",
      "countryId": "india",
      "timezone": "Asia/Kolkata",
      "latitude": 30.40207,
      "longitude": 74.02836,
      "stationCount": 1
    },
    {
      "id": "in-firozpur",
      "name": "Firozpur",
      "countryId": "india",
      "timezone": "Asia/Kolkata",
      "latitude": 30.92574,
      "longitude": 74.61311,
      "stationCount": 1
    },
    {
      "id": "in-gandhidham",
      "name": "Gāndhīdhām",
      "countryId": "india",
      "timezone": "Asia/Kolkata",
      "latitude": 23.08333,
      "longitude": 70.13333,
      "stationCount": 1
    },
    {
      "id": "in-gangtok",
      "name": "Gangtok",
      "countryId": "india",
      "timezone": "Asia/Kolkata",
      "latitude": 27.32574,
      "longitude": 88.61216,
      "stationCount": 4
    },
    {
      "id": "in-gaya",
      "name": "Gaya",
      "countryId": "india",
      "timezone": "Asia/Kolkata",
      "latitude": 24.79686,
      "longitude": 85.00385,
      "stationCount": 1
    },
    {
      "id": "in-ghatsila",
      "name": "Ghātsīla",
      "countryId": "india",
      "timezone": "Asia/Kolkata",
      "latitude": 22.58531,
      "longitude": 86.47682,
      "stationCount": 1
    },
    {
      "id": "in-giridih",
      "name": "Giridih",
      "countryId": "india",
      "timezone": "Asia/Kolkata",
      "latitude": 24.18622,
      "longitude": 86.30875,
      "stationCount": 1
    },
    {
      "id": "in-goalpara",
      "name": "Goālpāra",
      "countryId": "india",
      "timezone": "Asia/Kolkata",
      "latitude": 26.17668,
      "longitude": 90.62634,
      "stationCount": 1
    },
    {
      "id": "in-godda",
      "name": "Godda",
      "countryId": "india",
      "timezone": "Asia/Kolkata",
      "latitude": 24.827,
      "longitude": 87.2125,
      "stationCount": 1
    },
    {
      "id": "in-godhra",
      "name": "Godhra",
      "countryId": "india",
      "timezone": "Asia/Kolkata",
      "latitude": 22.77547,
      "longitude": 73.61488,
      "stationCount": 2
    },
    {
      "id": "in-gondia",
      "name": "Gondiā",
      "countryId": "india",
      "timezone": "Asia/Kolkata",
      "latitude": 21.46026,
      "longitude": 80.19205,
      "stationCount": 1
    },
    {
      "id": "in-gorakhpur",
      "name": "Gorakhpur",
      "countryId": "india",
      "timezone": "Asia/Kolkata",
      "latitude": 29.44768,
      "longitude": 75.67206,
      "stationCount": 5
    },
    {
      "id": "in-gumla",
      "name": "Gumlā",
      "countryId": "india",
      "timezone": "Asia/Kolkata",
      "latitude": 23.04268,
      "longitude": 84.54429,
      "stationCount": 1
    },
    {
      "id": "in-guna",
      "name": "Guna",
      "countryId": "india",
      "timezone": "Asia/Kolkata",
      "latitude": 24.64691,
      "longitude": 77.3113,
      "stationCount": 1
    },
    {
      "id": "in-gurdaspur",
      "name": "Gurdaspur",
      "countryId": "india",
      "timezone": "Asia/Kolkata",
      "latitude": 32.03933,
      "longitude": 75.40318,
      "stationCount": 1
    },
    {
      "id": "in-guwahati",
      "name": "Guwahati",
      "countryId": "india",
      "timezone": "Asia/Kolkata",
      "latitude": 26.1844,
      "longitude": 91.7458,
      "stationCount": 6
    },
    {
      "id": "in-gwalior",
      "name": "Gwalior",
      "countryId": "india",
      "timezone": "Asia/Kolkata",
      "latitude": 26.22983,
      "longitude": 78.17337,
      "stationCount": 3
    },
    {
      "id": "in-haflong",
      "name": "Hāflong",
      "countryId": "india",
      "timezone": "Asia/Kolkata",
      "latitude": 25.16478,
      "longitude": 93.01744,
      "stationCount": 2
    },
    {
      "id": "in-haldwani",
      "name": "Haldwani",
      "countryId": "india",
      "timezone": "Asia/Kolkata",
      "latitude": 29.22254,
      "longitude": 79.5286,
      "stationCount": 1
    },
    {
      "id": "in-hamirpur",
      "name": "Hamīrpur",
      "countryId": "india",
      "timezone": "Asia/Kolkata",
      "latitude": 25.9553,
      "longitude": 80.14842,
      "stationCount": 1
    },
    {
      "id": "in-hanumangarh",
      "name": "Hanumāngarh",
      "countryId": "india",
      "timezone": "Asia/Kolkata",
      "latitude": 29.58182,
      "longitude": 74.32938,
      "stationCount": 1
    },
    {
      "id": "in-harda",
      "name": "Harda",
      "countryId": "india",
      "timezone": "Asia/Kolkata",
      "latitude": 22.34414,
      "longitude": 77.09536,
      "stationCount": 1
    },
    {
      "id": "in-hardoi",
      "name": "Hardoī",
      "countryId": "india",
      "timezone": "Asia/Kolkata",
      "latitude": 27.39491,
      "longitude": 80.13165,
      "stationCount": 1
    },
    {
      "id": "in-haridwar",
      "name": "Haridwar",
      "countryId": "india",
      "timezone": "Asia/Kolkata",
      "latitude": 29.94791,
      "longitude": 78.16025,
      "stationCount": 1
    },
    {
      "id": "in-hassan",
      "name": "Hassan",
      "countryId": "india",
      "timezone": "Asia/Kolkata",
      "latitude": 13.00715,
      "longitude": 76.0962,
      "stationCount": 1
    },
    {
      "id": "in-hawai",
      "name": "Hawai",
      "countryId": "india",
      "timezone": "Asia/Kolkata",
      "latitude": 27.88677,
      "longitude": 96.8017,
      "stationCount": 1
    },
    {
      "id": "in-hayuliang",
      "name": "Hayuliang",
      "countryId": "india",
      "timezone": "Asia/Kolkata",
      "latitude": 28.07301,
      "longitude": 96.54305,
      "stationCount": 1
    },
    {
      "id": "in-hingoli",
      "name": "Hingoli",
      "countryId": "india",
      "timezone": "Asia/Kolkata",
      "latitude": 19.71464,
      "longitude": 77.14238,
      "stationCount": 1
    },
    {
      "id": "in-hisar",
      "name": "Hisar",
      "countryId": "india",
      "timezone": "Asia/Kolkata",
      "latitude": 29.15394,
      "longitude": 75.72294,
      "stationCount": 5
    },
    {
      "id": "in-hosapete",
      "name": "Hosapete",
      "countryId": "india",
      "timezone": "Asia/Kolkata",
      "latitude": 15.26954,
      "longitude": 76.3871,
      "stationCount": 1
    },
    {
      "id": "in-hyderabad",
      "name": "Hyderabad",
      "countryId": "india",
      "timezone": "Asia/Kolkata",
      "latitude": 17.38405,
      "longitude": 78.45636,
      "stationCount": 10
    },
    {
      "id": "in-imphal",
      "name": "Imphal",
      "countryId": "india",
      "timezone": "Asia/Kolkata",
      "latitude": 24.80805,
      "longitude": 93.9442,
      "stationCount": 2
    },
    {
      "id": "in-indore",
      "name": "Indore",
      "countryId": "india",
      "timezone": "Asia/Kolkata",
      "latitude": 22.71792,
      "longitude": 75.8333,
      "stationCount": 5
    },
    {
      "id": "in-itanagar",
      "name": "Itanagar",
      "countryId": "india",
      "timezone": "Asia/Kolkata",
      "latitude": 27.08694,
      "longitude": 93.60987,
      "stationCount": 3
    },
    {
      "id": "in-jabalpur",
      "name": "Jabalpur",
      "countryId": "india",
      "timezone": "Asia/Kolkata",
      "latitude": 23.16697,
      "longitude": 79.95006,
      "stationCount": 5
    },
    {
      "id": "in-jagdalpur",
      "name": "Jagdalpur",
      "countryId": "india",
      "timezone": "Asia/Kolkata",
      "latitude": 19.08136,
      "longitude": 82.02131,
      "stationCount": 1
    },
    {
      "id": "in-jaipur",
      "name": "Jaipur",
      "countryId": "india",
      "timezone": "Asia/Kolkata",
      "latitude": 26.91962,
      "longitude": 75.78781,
      "stationCount": 9
    },
    {
      "id": "in-jaisalmer",
      "name": "Jaisalmer",
      "countryId": "india",
      "timezone": "Asia/Kolkata",
      "latitude": 26.91763,
      "longitude": 70.90387,
      "stationCount": 1
    },
    {
      "id": "in-jalandhar",
      "name": "Jalandhar",
      "countryId": "india",
      "timezone": "Asia/Kolkata",
      "latitude": 31.32556,
      "longitude": 75.57917,
      "stationCount": 4
    },
    {
      "id": "in-jalgaon",
      "name": "Jalgaon",
      "countryId": "india",
      "timezone": "Asia/Kolkata",
      "latitude": 21.00292,
      "longitude": 75.56602,
      "stationCount": 5
    },
    {
      "id": "in-jalna",
      "name": "Jālna",
      "countryId": "india",
      "timezone": "Asia/Kolkata",
      "latitude": 19.84102,
      "longitude": 75.88636,
      "stationCount": 1
    },
    {
      "id": "in-jammu",
      "name": "Jammu",
      "countryId": "india",
      "timezone": "Asia/Kolkata",
      "latitude": 32.73528,
      "longitude": 74.86167,
      "stationCount": 6
    },
    {
      "id": "in-jamnagar",
      "name": "Jamnagar",
      "countryId": "india",
      "timezone": "Asia/Kolkata",
      "latitude": 22.47292,
      "longitude": 70.06673,
      "stationCount": 3
    },
    {
      "id": "in-jamshedpur",
      "name": "Jamshedpur",
      "countryId": "india",
      "timezone": "Asia/Kolkata",
      "latitude": 22.80278,
      "longitude": 86.18545,
      "stationCount": 6
    },
    {
      "id": "in-jamui",
      "name": "Jamūī",
      "countryId": "india",
      "timezone": "Asia/Kolkata",
      "latitude": 24.92606,
      "longitude": 86.22531,
      "stationCount": 1
    },
    {
      "id": "in-jhabua",
      "name": "Jhābua",
      "countryId": "india",
      "timezone": "Asia/Kolkata",
      "latitude": 22.76772,
      "longitude": 74.59087,
      "stationCount": 1
    },
    {
      "id": "in-jhalawar",
      "name": "Jhālāwār",
      "countryId": "india",
      "timezone": "Asia/Kolkata",
      "latitude": 24.59633,
      "longitude": 76.16499,
      "stationCount": 1
    },
    {
      "id": "in-jhansi",
      "name": "Jhānsi",
      "countryId": "india",
      "timezone": "Asia/Kolkata",
      "latitude": 25.45887,
      "longitude": 78.57994,
      "stationCount": 5
    },
    {
      "id": "in-jhunjhunun",
      "name": "Jhunjhunūn",
      "countryId": "india",
      "timezone": "Asia/Kolkata",
      "latitude": 28.12559,
      "longitude": 75.39797,
      "stationCount": 1
    },
    {
      "id": "in-jind",
      "name": "Jīnd",
      "countryId": "india",
      "timezone": "Asia/Kolkata",
      "latitude": 29.31577,
      "longitude": 76.31502,
      "stationCount": 1
    },
    {
      "id": "in-jodhpur",
      "name": "Jodhpur",
      "countryId": "india",
      "timezone": "Asia/Kolkata",
      "latitude": 26.26841,
      "longitude": 73.00594,
      "stationCount": 5
    },
    {
      "id": "in-jorhat",
      "name": "Jorhat",
      "countryId": "india",
      "timezone": "Asia/Kolkata",
      "latitude": 26.75751,
      "longitude": 94.20306,
      "stationCount": 1
    },
    {
      "id": "in-jowai",
      "name": "Jowai",
      "countryId": "india",
      "timezone": "Asia/Kolkata",
      "latitude": 25.43596,
      "longitude": 92.19132,
      "stationCount": 1
    },
    {
      "id": "in-junagadh",
      "name": "Jūnāgadh",
      "countryId": "india",
      "timezone": "Asia/Kolkata",
      "latitude": 21.51966,
      "longitude": 70.45981,
      "stationCount": 2
    },
    {
      "id": "in-junagadh-2",
      "name": "Jūnāgadh",
      "countryId": "india",
      "timezone": "Asia/Kolkata",
      "latitude": 21.51966,
      "longitude": 70.45981,
      "stationCount": 1
    },
    {
      "id": "in-kadapa",
      "name": "Kadapa",
      "countryId": "india",
      "timezone": "Asia/Kolkata",
      "latitude": 14.47995,
      "longitude": 78.82346,
      "stationCount": 1
    },
    {
      "id": "in-kailashahar",
      "name": "Kailāshahar",
      "countryId": "india",
      "timezone": "Asia/Kolkata",
      "latitude": 24.33199,
      "longitude": 92.00391,
      "stationCount": 1
    },
    {
      "id": "in-kakinada",
      "name": "Kākināda",
      "countryId": "india",
      "timezone": "Asia/Kolkata",
      "latitude": 16.96036,
      "longitude": 82.23809,
      "stationCount": 1
    },
    {
      "id": "in-kalaburagi",
      "name": "Kalaburagi",
      "countryId": "india",
      "timezone": "Asia/Kolkata",
      "latitude": 17.33583,
      "longitude": 76.83757,
      "stationCount": 1
    },
    {
      "id": "in-kalaburagi-2",
      "name": "Kalaburagi",
      "countryId": "india",
      "timezone": "Asia/Kolkata",
      "latitude": 17.33583,
      "longitude": 76.83757,
      "stationCount": 1
    },
    {
      "id": "in-kalagarh-project-colony",
      "name": "Kālāgarh Project Colony",
      "countryId": "india",
      "timezone": "Asia/Kolkata",
      "latitude": 29.4778,
      "longitude": 78.78449,
      "stationCount": 1
    },
    {
      "id": "in-kalpatta",
      "name": "Kalpatta",
      "countryId": "india",
      "timezone": "Asia/Kolkata",
      "latitude": 11.60871,
      "longitude": 76.08343,
      "stationCount": 1
    },
    {
      "id": "in-kangpokpi",
      "name": "Kāngpokpi",
      "countryId": "india",
      "timezone": "Asia/Kolkata",
      "latitude": 25.15273,
      "longitude": 93.97167,
      "stationCount": 1
    },
    {
      "id": "in-kanker",
      "name": "Kānker",
      "countryId": "india",
      "timezone": "Asia/Kolkata",
      "latitude": 20.27193,
      "longitude": 81.49177,
      "stationCount": 1
    },
    {
      "id": "in-kannur",
      "name": "Kannur",
      "countryId": "india",
      "timezone": "Asia/Kolkata",
      "latitude": 11.86752,
      "longitude": 75.35763,
      "stationCount": 3
    },
    {
      "id": "in-kanpur",
      "name": "Kanpur",
      "countryId": "india",
      "timezone": "Asia/Kolkata",
      "latitude": 26.46523,
      "longitude": 80.34975,
      "stationCount": 8
    },
    {
      "id": "in-karaikal",
      "name": "Kāraikāl",
      "countryId": "india",
      "timezone": "Asia/Kolkata",
      "latitude": 10.91667,
      "longitude": 79.83333,
      "stationCount": 1
    },
    {
      "id": "in-karanpur",
      "name": "Karanpur",
      "countryId": "india",
      "timezone": "Asia/Kolkata",
      "latitude": 29.84042,
      "longitude": 73.45519,
      "stationCount": 1
    },
    {
      "id": "in-karauli",
      "name": "Karauli",
      "countryId": "india",
      "timezone": "Asia/Kolkata",
      "latitude": 26.49831,
      "longitude": 77.02755,
      "stationCount": 1
    },
    {
      "id": "in-kargil",
      "name": "Kargil",
      "countryId": "india",
      "timezone": "Asia/Kolkata",
      "latitude": 34.55765,
      "longitude": 76.12622,
      "stationCount": 3
    },
    {
      "id": "in-karimganj",
      "name": "Karīmganj",
      "countryId": "india",
      "timezone": "Asia/Kolkata",
      "latitude": 24.86919,
      "longitude": 92.35543,
      "stationCount": 1
    },
    {
      "id": "in-karimnagar",
      "name": "Karīmnagar",
      "countryId": "india",
      "timezone": "Asia/Kolkata",
      "latitude": 18.43915,
      "longitude": 79.12856,
      "stationCount": 1
    },
    {
      "id": "in-karnal",
      "name": "Karnāl",
      "countryId": "india",
      "timezone": "Asia/Kolkata",
      "latitude": 29.69197,
      "longitude": 76.98448,
      "stationCount": 3
    },
    {
      "id": "in-karwar",
      "name": "Karwar",
      "countryId": "india",
      "timezone": "Asia/Kolkata",
      "latitude": 14.81361,
      "longitude": 74.12972,
      "stationCount": 1
    },
    {
      "id": "in-kasauli",
      "name": "Kasauli",
      "countryId": "india",
      "timezone": "Asia/Kolkata",
      "latitude": 30.89856,
      "longitude": 76.96587,
      "stationCount": 1
    },
    {
      "id": "in-kashipur",
      "name": "Kashipur",
      "countryId": "india",
      "timezone": "Asia/Kolkata",
      "latitude": 29.21399,
      "longitude": 78.95693,
      "stationCount": 1
    },
    {
      "id": "in-kathua",
      "name": "Kathua",
      "countryId": "india",
      "timezone": "Asia/Kolkata",
      "latitude": 32.36941,
      "longitude": 75.52539,
      "stationCount": 3
    },
    {
      "id": "in-katihar",
      "name": "Katihar",
      "countryId": "india",
      "timezone": "Asia/Kolkata",
      "latitude": 25.53852,
      "longitude": 87.57044,
      "stationCount": 1
    },
    {
      "id": "in-kavaratti",
      "name": "Kavaratti",
      "countryId": "india",
      "timezone": "Asia/Kolkata",
      "latitude": 10.56688,
      "longitude": 72.64203,
      "stationCount": 1
    },
    {
      "id": "in-kayamkulam",
      "name": "Kayamkulam",
      "countryId": "india",
      "timezone": "Asia/Kolkata",
      "latitude": 9.18173,
      "longitude": 76.50093,
      "stationCount": 1
    },
    {
      "id": "in-kendraparha",
      "name": "Kendrāparha",
      "countryId": "india",
      "timezone": "Asia/Kolkata",
      "latitude": 20.50166,
      "longitude": 86.42227,
      "stationCount": 1
    },
    {
      "id": "in-keonjhargarh",
      "name": "Keonjhargarh",
      "countryId": "india",
      "timezone": "Asia/Kolkata",
      "latitude": 21.6318,
      "longitude": 85.59686,
      "stationCount": 1
    },
    {
      "id": "in-khammam",
      "name": "Khammam",
      "countryId": "india",
      "timezone": "Asia/Kolkata",
      "latitude": 17.24767,
      "longitude": 80.14368,
      "stationCount": 1
    },
    {
      "id": "in-khandwa",
      "name": "Khandwa",
      "countryId": "india",
      "timezone": "Asia/Kolkata",
      "latitude": 21.82427,
      "longitude": 76.35086,
      "stationCount": 1
    },
    {
      "id": "in-kharagpur",
      "name": "Kharagpur",
      "countryId": "india",
      "timezone": "Asia/Kolkata",
      "latitude": 22.33971,
      "longitude": 87.32501,
      "stationCount": 1
    },
    {
      "id": "in-kharod",
      "name": "Kharod",
      "countryId": "india",
      "timezone": "Asia/Kolkata",
      "latitude": 21.7442,
      "longitude": 82.5788,
      "stationCount": 1
    },
    {
      "id": "in-khonsa",
      "name": "Khonsa",
      "countryId": "india",
      "timezone": "Asia/Kolkata",
      "latitude": 27.01667,
      "longitude": 95.56667,
      "stationCount": 1
    },
    {
      "id": "in-khowai",
      "name": "Khowai",
      "countryId": "india",
      "timezone": "Asia/Kolkata",
      "latitude": 24.07964,
      "longitude": 91.59972,
      "stationCount": 1
    },
    {
      "id": "in-kochi",
      "name": "Kochi",
      "countryId": "india",
      "timezone": "Asia/Kolkata",
      "latitude": 9.93988,
      "longitude": 76.26022,
      "stationCount": 6
    },
    {
      "id": "in-kodaikanal",
      "name": "Kodaikānāl",
      "countryId": "india",
      "timezone": "Asia/Kolkata",
      "latitude": 10.23925,
      "longitude": 77.48932,
      "stationCount": 1
    },
    {
      "id": "in-kohima",
      "name": "Kohima",
      "countryId": "india",
      "timezone": "Asia/Kolkata",
      "latitude": 25.67467,
      "longitude": 94.11099,
      "stationCount": 1
    },
    {
      "id": "in-kokrajhar",
      "name": "Kokrajhar",
      "countryId": "india",
      "timezone": "Asia/Kolkata",
      "latitude": 26.40107,
      "longitude": 90.27286,
      "stationCount": 2
    },
    {
      "id": "in-kolar",
      "name": "Kolār",
      "countryId": "india",
      "timezone": "Asia/Kolkata",
      "latitude": 13.13768,
      "longitude": 78.12999,
      "stationCount": 1
    },
    {
      "id": "in-kolasib",
      "name": "Kolasib",
      "countryId": "india",
      "timezone": "Asia/Kolkata",
      "latitude": 24.22388,
      "longitude": 92.67869,
      "stationCount": 1
    },
    {
      "id": "in-kolhapur",
      "name": "Kolhāpur",
      "countryId": "india",
      "timezone": "Asia/Kolkata",
      "latitude": 16.69563,
      "longitude": 74.23167,
      "stationCount": 5
    },
    {
      "id": "in-kolkata",
      "name": "Kolkata",
      "countryId": "india",
      "timezone": "Asia/Kolkata",
      "latitude": 22.56263,
      "longitude": 88.36304,
      "stationCount": 10
    },
    {
      "id": "in-konta",
      "name": "Konta",
      "countryId": "india",
      "timezone": "Asia/Kolkata",
      "latitude": 17.80492,
      "longitude": 81.38666,
      "stationCount": 1
    },
    {
      "id": "in-koraput",
      "name": "Koraput",
      "countryId": "india",
      "timezone": "Asia/Kolkata",
      "latitude": 18.81199,
      "longitude": 82.71048,
      "stationCount": 1
    },
    {
      "id": "in-korba",
      "name": "Korba",
      "countryId": "india",
      "timezone": "Asia/Kolkata",
      "latitude": 22.3458,
      "longitude": 82.69633,
      "stationCount": 1
    },
    {
      "id": "in-kota",
      "name": "Kota",
      "countryId": "india",
      "timezone": "Asia/Kolkata",
      "latitude": 25.18254,
      "longitude": 75.83907,
      "stationCount": 1
    },
    {
      "id": "in-kota-2",
      "name": "Kota",
      "countryId": "india",
      "timezone": "Asia/Kolkata",
      "latitude": 25.18254,
      "longitude": 75.83907,
      "stationCount": 4
    },
    {
      "id": "in-kotputli",
      "name": "Kotputli",
      "countryId": "india",
      "timezone": "Asia/Kolkata",
      "latitude": 27.70207,
      "longitude": 76.19911,
      "stationCount": 1
    },
    {
      "id": "in-kozhikode",
      "name": "Kozhikode",
      "countryId": "india",
      "timezone": "Asia/Kolkata",
      "latitude": 11.24802,
      "longitude": 75.7804,
      "stationCount": 5
    },
    {
      "id": "in-krishnanagar",
      "name": "Krishnanagar",
      "countryId": "india",
      "timezone": "Asia/Kolkata",
      "latitude": 23.40576,
      "longitude": 88.49073,
      "stationCount": 1
    },
    {
      "id": "in-kukdeshwar",
      "name": "Kukdeshwar",
      "countryId": "india",
      "timezone": "Asia/Kolkata",
      "latitude": 24.48285,
      "longitude": 75.26755,
      "stationCount": 1
    },
    {
      "id": "in-kulu",
      "name": "Kulu",
      "countryId": "india",
      "timezone": "Asia/Kolkata",
      "latitude": 31.95835,
      "longitude": 77.10823,
      "stationCount": 1
    },
    {
      "id": "in-kumta",
      "name": "Kumta",
      "countryId": "india",
      "timezone": "Asia/Kolkata",
      "latitude": 14.42853,
      "longitude": 74.4189,
      "stationCount": 1
    },
    {
      "id": "in-kurnool",
      "name": "Kurnool",
      "countryId": "india",
      "timezone": "Asia/Kolkata",
      "latitude": 15.82887,
      "longitude": 78.03602,
      "stationCount": 1
    },
    {
      "id": "in-kurseong",
      "name": "Kurseong",
      "countryId": "india",
      "timezone": "Asia/Kolkata",
      "latitude": 26.88251,
      "longitude": 88.27729,
      "stationCount": 2
    },
    {
      "id": "in-kurwai",
      "name": "Kurwai",
      "countryId": "india",
      "timezone": "Asia/Kolkata",
      "latitude": 24.11722,
      "longitude": 78.03833,
      "stationCount": 1
    },
    {
      "id": "in-lalitpur",
      "name": "Lalitpur",
      "countryId": "india",
      "timezone": "Asia/Kolkata",
      "latitude": 24.69007,
      "longitude": 78.41915,
      "stationCount": 1
    },
    {
      "id": "in-lanka",
      "name": "Lanka",
      "countryId": "india",
      "timezone": "Asia/Kolkata",
      "latitude": 25.92907,
      "longitude": 92.94856,
      "stationCount": 1
    },
    {
      "id": "in-lawngtlai",
      "name": "Lawngtlai",
      "countryId": "india",
      "timezone": "Asia/Kolkata",
      "latitude": 22.53254,
      "longitude": 92.89902,
      "stationCount": 1
    },
    {
      "id": "in-leh",
      "name": "Leh",
      "countryId": "india",
      "timezone": "Asia/Kolkata",
      "latitude": 34.16504,
      "longitude": 77.58402,
      "stationCount": 4
    },
    {
      "id": "in-lohardaga",
      "name": "Lohārdagā",
      "countryId": "india",
      "timezone": "Asia/Kolkata",
      "latitude": 23.43305,
      "longitude": 84.67992,
      "stationCount": 1
    },
    {
      "id": "in-luckeesarai",
      "name": "Luckeesarai",
      "countryId": "india",
      "timezone": "Asia/Kolkata",
      "latitude": 25.1765,
      "longitude": 86.0947,
      "stationCount": 1
    },
    {
      "id": "in-lucknow",
      "name": "Lucknow",
      "countryId": "india",
      "timezone": "Asia/Kolkata",
      "latitude": 26.83928,
      "longitude": 80.92313,
      "stationCount": 8
    },
    {
      "id": "in-ludhiana",
      "name": "Ludhiana",
      "countryId": "india",
      "timezone": "Asia/Kolkata",
      "latitude": 30.91204,
      "longitude": 75.85379,
      "stationCount": 1
    },
    {
      "id": "in-lumding-railway-colony",
      "name": "Lumding Railway Colony",
      "countryId": "india",
      "timezone": "Asia/Kolkata",
      "latitude": 25.74903,
      "longitude": 93.16998,
      "stationCount": 1
    },
    {
      "id": "in-lunglei",
      "name": "Lunglei",
      "countryId": "india",
      "timezone": "Asia/Kolkata",
      "latitude": 22.89247,
      "longitude": 92.74218,
      "stationCount": 1
    },
    {
      "id": "in-macherla",
      "name": "Mācherla",
      "countryId": "india",
      "timezone": "Asia/Kolkata",
      "latitude": 16.47635,
      "longitude": 79.43533,
      "stationCount": 1
    },
    {
      "id": "in-madhubani",
      "name": "Madhubani",
      "countryId": "india",
      "timezone": "Asia/Kolkata",
      "latitude": 26.35367,
      "longitude": 86.07169,
      "stationCount": 1
    },
    {
      "id": "in-madikeri",
      "name": "Madikeri",
      "countryId": "india",
      "timezone": "Asia/Kolkata",
      "latitude": 12.42602,
      "longitude": 75.7382,
      "stationCount": 1
    },
    {
      "id": "in-madurai",
      "name": "Madurai",
      "countryId": "india",
      "timezone": "Asia/Kolkata",
      "latitude": 9.919,
      "longitude": 78.11953,
      "stationCount": 5
    },
    {
      "id": "in-maharaganj",
      "name": "Mahārāganj",
      "countryId": "india",
      "timezone": "Asia/Kolkata",
      "latitude": 27.14456,
      "longitude": 83.56214,
      "stationCount": 1
    },
    {
      "id": "in-mahesana",
      "name": "Mahesāna",
      "countryId": "india",
      "timezone": "Asia/Kolkata",
      "latitude": 23.59864,
      "longitude": 72.38472,
      "stationCount": 3
    },
    {
      "id": "in-mahoba",
      "name": "Mahobā",
      "countryId": "india",
      "timezone": "Asia/Kolkata",
      "latitude": 25.2905,
      "longitude": 79.87533,
      "stationCount": 1
    },
    {
      "id": "in-malakanagiri",
      "name": "Malakanagiri",
      "countryId": "india",
      "timezone": "Asia/Kolkata",
      "latitude": 18.36428,
      "longitude": 81.888,
      "stationCount": 1
    },
    {
      "id": "in-malda",
      "name": "Malda",
      "countryId": "india",
      "timezone": "Asia/Kolkata",
      "latitude": 25.00447,
      "longitude": 88.14573,
      "stationCount": 1
    },
    {
      "id": "in-malegaon",
      "name": "Malegaon",
      "countryId": "india",
      "timezone": "Asia/Kolkata",
      "latitude": 20.54966,
      "longitude": 74.53462,
      "stationCount": 1
    },
    {
      "id": "in-manali",
      "name": "Manali",
      "countryId": "india",
      "timezone": "Asia/Kolkata",
      "latitude": 13.16667,
      "longitude": 80.26667,
      "stationCount": 1
    },
    {
      "id": "in-mandi",
      "name": "Mandi",
      "countryId": "india",
      "timezone": "Asia/Kolkata",
      "latitude": 31.71194,
      "longitude": 76.93273,
      "stationCount": 1
    },
    {
      "id": "in-mandla",
      "name": "Mandlā",
      "countryId": "india",
      "timezone": "Asia/Kolkata",
      "latitude": 22.59879,
      "longitude": 80.37115,
      "stationCount": 1
    },
    {
      "id": "in-mandsaur",
      "name": "Mandsaur",
      "countryId": "india",
      "timezone": "Asia/Kolkata",
      "latitude": 24.07184,
      "longitude": 75.06986,
      "stationCount": 1
    },
    {
      "id": "in-mangaluru",
      "name": "Mangaluru",
      "countryId": "india",
      "timezone": "Asia/Kolkata",
      "latitude": 12.91723,
      "longitude": 74.85603,
      "stationCount": 4
    },
    {
      "id": "in-mangan",
      "name": "Mangan",
      "countryId": "india",
      "timezone": "Asia/Kolkata",
      "latitude": 27.50965,
      "longitude": 88.52206,
      "stationCount": 1
    },
    {
      "id": "in-manjeri",
      "name": "Manjeri",
      "countryId": "india",
      "timezone": "Asia/Kolkata",
      "latitude": 11.12018,
      "longitude": 76.11996,
      "stationCount": 1
    },
    {
      "id": "in-margherita",
      "name": "Margherita",
      "countryId": "india",
      "timezone": "Asia/Kolkata",
      "latitude": 27.28482,
      "longitude": 95.66796,
      "stationCount": 1
    },
    {
      "id": "in-mathura",
      "name": "Mathura",
      "countryId": "india",
      "timezone": "Asia/Kolkata",
      "latitude": 27.5035,
      "longitude": 77.67215,
      "stationCount": 2
    },
    {
      "id": "in-mau",
      "name": "Mau",
      "countryId": "india",
      "timezone": "Asia/Kolkata",
      "latitude": 25.94167,
      "longitude": 83.56111,
      "stationCount": 1
    },
    {
      "id": "in-medininagar",
      "name": "Medininagar",
      "countryId": "india",
      "timezone": "Asia/Kolkata",
      "latitude": 24.03971,
      "longitude": 84.0658,
      "stationCount": 1
    },
    {
      "id": "in-meerut",
      "name": "Meerut",
      "countryId": "india",
      "timezone": "Asia/Kolkata",
      "latitude": 28.98002,
      "longitude": 77.70636,
      "stationCount": 1
    },
    {
      "id": "in-miao",
      "name": "Miāo",
      "countryId": "india",
      "timezone": "Asia/Kolkata",
      "latitude": 27.49335,
      "longitude": 96.18118,
      "stationCount": 1
    },
    {
      "id": "in-modasa",
      "name": "Modāsa",
      "countryId": "india",
      "timezone": "Asia/Kolkata",
      "latitude": 23.46253,
      "longitude": 73.29857,
      "stationCount": 1
    },
    {
      "id": "in-mohana",
      "name": "Mohana",
      "countryId": "india",
      "timezone": "Asia/Kolkata",
      "latitude": 19.44273,
      "longitude": 84.26128,
      "stationCount": 1
    },
    {
      "id": "in-mokokchung",
      "name": "Mokokchūng",
      "countryId": "india",
      "timezone": "Asia/Kolkata",
      "latitude": 26.3248,
      "longitude": 94.51834,
      "stationCount": 1
    },
    {
      "id": "in-mon",
      "name": "Mon",
      "countryId": "india",
      "timezone": "Asia/Kolkata",
      "latitude": 26.73583,
      "longitude": 95.05841,
      "stationCount": 1
    },
    {
      "id": "in-moreh",
      "name": "Moreh",
      "countryId": "india",
      "timezone": "Asia/Kolkata",
      "latitude": 24.2508,
      "longitude": 94.30073,
      "stationCount": 1
    },
    {
      "id": "in-mothihari",
      "name": "Mothīhāri",
      "countryId": "india",
      "timezone": "Asia/Kolkata",
      "latitude": 26.64862,
      "longitude": 84.91656,
      "stationCount": 1
    },
    {
      "id": "in-mumbai",
      "name": "Mumbai",
      "countryId": "india",
      "timezone": "Asia/Kolkata",
      "latitude": 19.07283,
      "longitude": 72.88261,
      "stationCount": 11
    },
    {
      "id": "in-murshidabad",
      "name": "Murshidābād",
      "countryId": "india",
      "timezone": "Asia/Kolkata",
      "latitude": 24.1839,
      "longitude": 88.27171,
      "stationCount": 1
    },
    {
      "id": "in-murwara",
      "name": "Murwāra",
      "countryId": "india",
      "timezone": "Asia/Kolkata",
      "latitude": 23.83776,
      "longitude": 80.39405,
      "stationCount": 1
    },
    {
      "id": "in-mussoorie",
      "name": "Mussoorie",
      "countryId": "india",
      "timezone": "Asia/Kolkata",
      "latitude": 30.45498,
      "longitude": 78.07068,
      "stationCount": 1
    },
    {
      "id": "in-muzaffarpur",
      "name": "Muzaffarpur",
      "countryId": "india",
      "timezone": "Asia/Kolkata",
      "latitude": 26.12259,
      "longitude": 85.39055,
      "stationCount": 5
    },
    {
      "id": "in-mysuru",
      "name": "Mysuru",
      "countryId": "india",
      "timezone": "Asia/Kolkata",
      "latitude": 12.29791,
      "longitude": 76.63925,
      "stationCount": 4
    },
    {
      "id": "in-nagaon",
      "name": "Nagaon",
      "countryId": "india",
      "timezone": "Asia/Kolkata",
      "latitude": 26.35,
      "longitude": 92.66667,
      "stationCount": 2
    },
    {
      "id": "in-nagaur",
      "name": "Nāgaur",
      "countryId": "india",
      "timezone": "Asia/Kolkata",
      "latitude": 27.20201,
      "longitude": 73.73394,
      "stationCount": 1
    },
    {
      "id": "in-nagda",
      "name": "Nagda",
      "countryId": "india",
      "timezone": "Asia/Kolkata",
      "latitude": 23.45834,
      "longitude": 75.41759,
      "stationCount": 1
    },
    {
      "id": "in-nagpur",
      "name": "Nagpur",
      "countryId": "india",
      "timezone": "Asia/Kolkata",
      "latitude": 21.14631,
      "longitude": 79.08491,
      "stationCount": 7
    },
    {
      "id": "in-naini-tal",
      "name": "Naini Tāl",
      "countryId": "india",
      "timezone": "Asia/Kolkata",
      "latitude": 29.39743,
      "longitude": 79.44686,
      "stationCount": 1
    },
    {
      "id": "in-nalgonda",
      "name": "Nalgonda",
      "countryId": "india",
      "timezone": "Asia/Kolkata",
      "latitude": 17.05439,
      "longitude": 79.26707,
      "stationCount": 1
    },
    {
      "id": "in-namchi",
      "name": "Namchi",
      "countryId": "india",
      "timezone": "Asia/Kolkata",
      "latitude": 27.16494,
      "longitude": 88.3638,
      "stationCount": 1
    },
    {
      "id": "in-namsai",
      "name": "Namsai",
      "countryId": "india",
      "timezone": "Asia/Kolkata",
      "latitude": 27.66904,
      "longitude": 95.86395,
      "stationCount": 1
    },
    {
      "id": "in-nanded",
      "name": "Nanded",
      "countryId": "india",
      "timezone": "Asia/Kolkata",
      "latitude": 19.16023,
      "longitude": 77.31497,
      "stationCount": 4
    },
    {
      "id": "in-nandurbar",
      "name": "Nandurbar",
      "countryId": "india",
      "timezone": "Asia/Kolkata",
      "latitude": 21.36671,
      "longitude": 74.24051,
      "stationCount": 1
    },
    {
      "id": "in-nandyal",
      "name": "Nandyāl",
      "countryId": "india",
      "timezone": "Asia/Kolkata",
      "latitude": 15.47799,
      "longitude": 78.4836,
      "stationCount": 1
    },
    {
      "id": "in-nanpara",
      "name": "Nānpāra",
      "countryId": "india",
      "timezone": "Asia/Kolkata",
      "latitude": 27.86459,
      "longitude": 81.50036,
      "stationCount": 1
    },
    {
      "id": "in-narainpur",
      "name": "Nārāinpur",
      "countryId": "india",
      "timezone": "Asia/Kolkata",
      "latitude": 19.71794,
      "longitude": 81.24437,
      "stationCount": 1
    },
    {
      "id": "in-narsimhapur",
      "name": "Narsimhapur",
      "countryId": "india",
      "timezone": "Asia/Kolkata",
      "latitude": 22.94936,
      "longitude": 79.18357,
      "stationCount": 1
    },
    {
      "id": "in-nashik",
      "name": "Nashik",
      "countryId": "india",
      "timezone": "Asia/Kolkata",
      "latitude": 19.99727,
      "longitude": 73.79096,
      "stationCount": 4
    },
    {
      "id": "in-nashik-2",
      "name": "Nashik",
      "countryId": "india",
      "timezone": "Asia/Kolkata",
      "latitude": 19.99727,
      "longitude": 73.79096,
      "stationCount": 1
    },
    {
      "id": "in-nathdwara",
      "name": "Nāthdwāra",
      "countryId": "india",
      "timezone": "Asia/Kolkata",
      "latitude": 24.93805,
      "longitude": 73.82392,
      "stationCount": 1
    },
    {
      "id": "in-nawada",
      "name": "Nawāda",
      "countryId": "india",
      "timezone": "Asia/Kolkata",
      "latitude": 24.8867,
      "longitude": 85.54364,
      "stationCount": 1
    },
    {
      "id": "in-nazira",
      "name": "Nāzirā",
      "countryId": "india",
      "timezone": "Asia/Kolkata",
      "latitude": 26.91649,
      "longitude": 94.73611,
      "stationCount": 1
    },
    {
      "id": "in-nellore",
      "name": "Nellore",
      "countryId": "india",
      "timezone": "Asia/Kolkata",
      "latitude": 14.44992,
      "longitude": 79.98697,
      "stationCount": 2
    },
    {
      "id": "in-ngur",
      "name": "Ngūr",
      "countryId": "india",
      "timezone": "Asia/Kolkata",
      "latitude": 23.53798,
      "longitude": 93.3732,
      "stationCount": 1
    },
    {
      "id": "in-nimach",
      "name": "Nimach",
      "countryId": "india",
      "timezone": "Asia/Kolkata",
      "latitude": 24.45949,
      "longitude": 74.86625,
      "stationCount": 1
    },
    {
      "id": "in-nizamabad",
      "name": "Nizāmābād",
      "countryId": "india",
      "timezone": "Asia/Kolkata",
      "latitude": 18.67154,
      "longitude": 78.0988,
      "stationCount": 1
    },
    {
      "id": "in-nongstoin",
      "name": "Nongstoin",
      "countryId": "india",
      "timezone": "Asia/Kolkata",
      "latitude": 25.51704,
      "longitude": 91.26484,
      "stationCount": 1
    },
    {
      "id": "in-north-lakhimpur",
      "name": "North Lakhimpur",
      "countryId": "india",
      "timezone": "Asia/Kolkata",
      "latitude": 27.23517,
      "longitude": 94.10357,
      "stationCount": 1
    },
    {
      "id": "in-north-vanlaiphai",
      "name": "North Vanlaiphai",
      "countryId": "india",
      "timezone": "Asia/Kolkata",
      "latitude": 23.13227,
      "longitude": 93.06532,
      "stationCount": 1
    },
    {
      "id": "in-obra",
      "name": "Obra",
      "countryId": "india",
      "timezone": "Asia/Kolkata",
      "latitude": 24.41863,
      "longitude": 82.98797,
      "stationCount": 1
    },
    {
      "id": "in-ongole",
      "name": "Ongole",
      "countryId": "india",
      "timezone": "Asia/Kolkata",
      "latitude": 15.50357,
      "longitude": 80.04454,
      "stationCount": 1
    },
    {
      "id": "in-orai",
      "name": "Orai",
      "countryId": "india",
      "timezone": "Asia/Kolkata",
      "latitude": 25.99023,
      "longitude": 79.45334,
      "stationCount": 1
    },
    {
      "id": "in-pahalgam",
      "name": "Pahalgam",
      "countryId": "india",
      "timezone": "Asia/Kolkata",
      "latitude": 34.01592,
      "longitude": 75.31899,
      "stationCount": 1
    },
    {
      "id": "in-palanpur",
      "name": "Pālanpur",
      "countryId": "india",
      "timezone": "Asia/Kolkata",
      "latitude": 24.17128,
      "longitude": 72.43827,
      "stationCount": 1
    },
    {
      "id": "in-pali",
      "name": "Pāli",
      "countryId": "india",
      "timezone": "Asia/Kolkata",
      "latitude": 25.77276,
      "longitude": 73.32335,
      "stationCount": 2
    },
    {
      "id": "in-pandaria",
      "name": "Pandaria",
      "countryId": "india",
      "timezone": "Asia/Kolkata",
      "latitude": 22.22495,
      "longitude": 81.40994,
      "stationCount": 1
    },
    {
      "id": "in-panjim",
      "name": "Panjim",
      "countryId": "india",
      "timezone": "Asia/Kolkata",
      "latitude": 15.49574,
      "longitude": 73.82624,
      "stationCount": 4
    },
    {
      "id": "in-panna",
      "name": "Panna",
      "countryId": "india",
      "timezone": "Asia/Kolkata",
      "latitude": 24.72094,
      "longitude": 80.18772,
      "stationCount": 1
    },
    {
      "id": "in-paradip-garh",
      "name": "Parādīp Garh",
      "countryId": "india",
      "timezone": "Asia/Kolkata",
      "latitude": 20.31641,
      "longitude": 86.6085,
      "stationCount": 1
    },
    {
      "id": "in-parbhani",
      "name": "Parbhani",
      "countryId": "india",
      "timezone": "Asia/Kolkata",
      "latitude": 19.26855,
      "longitude": 76.77081,
      "stationCount": 1
    },
    {
      "id": "in-pathanamthitta",
      "name": "Pathanāmthitta",
      "countryId": "india",
      "timezone": "Asia/Kolkata",
      "latitude": 9.26667,
      "longitude": 76.78333,
      "stationCount": 1
    },
    {
      "id": "in-patiala",
      "name": "Patiāla",
      "countryId": "india",
      "timezone": "Asia/Kolkata",
      "latitude": 30.33625,
      "longitude": 76.3922,
      "stationCount": 5
    },
    {
      "id": "in-patna",
      "name": "Patna",
      "countryId": "india",
      "timezone": "Asia/Kolkata",
      "latitude": 25.59408,
      "longitude": 85.13563,
      "stationCount": 6
    },
    {
      "id": "in-pauri",
      "name": "Pauri",
      "countryId": "india",
      "timezone": "Asia/Kolkata",
      "latitude": 30.15286,
      "longitude": 78.7771,
      "stationCount": 1
    },
    {
      "id": "in-phalodi",
      "name": "Phalodi",
      "countryId": "india",
      "timezone": "Asia/Kolkata",
      "latitude": 27.13102,
      "longitude": 72.36826,
      "stationCount": 1
    },
    {
      "id": "in-phek",
      "name": "Phek",
      "countryId": "india",
      "timezone": "Asia/Kolkata",
      "latitude": 25.66667,
      "longitude": 94.5,
      "stationCount": 1
    },
    {
      "id": "in-phulbani",
      "name": "Phulbāni",
      "countryId": "india",
      "timezone": "Asia/Kolkata",
      "latitude": 20.48101,
      "longitude": 84.23063,
      "stationCount": 1
    },
    {
      "id": "in-pilibhit",
      "name": "Pīlibhīt",
      "countryId": "india",
      "timezone": "Asia/Kolkata",
      "latitude": 28.63124,
      "longitude": 79.80436,
      "stationCount": 1
    },
    {
      "id": "in-piparia",
      "name": "Piparia",
      "countryId": "india",
      "timezone": "Asia/Kolkata",
      "latitude": 22.00241,
      "longitude": 81.32603,
      "stationCount": 1
    },
    {
      "id": "in-pithoragarh",
      "name": "Pithorāgarh",
      "countryId": "india",
      "timezone": "Asia/Kolkata",
      "latitude": 29.58349,
      "longitude": 80.20947,
      "stationCount": 1
    },
    {
      "id": "in-porbandar",
      "name": "Porbandar",
      "countryId": "india",
      "timezone": "Asia/Kolkata",
      "latitude": 21.64219,
      "longitude": 69.60929,
      "stationCount": 2
    },
    {
      "id": "in-prayagraj",
      "name": "Prayagraj",
      "countryId": "india",
      "timezone": "Asia/Kolkata",
      "latitude": 25.44478,
      "longitude": 81.84322,
      "stationCount": 5
    },
    {
      "id": "in-puducherry",
      "name": "Puducherry",
      "countryId": "india",
      "timezone": "Asia/Kolkata",
      "latitude": 11.93381,
      "longitude": 79.82979,
      "stationCount": 5
    },
    {
      "id": "in-punalur",
      "name": "Punalūr",
      "countryId": "india",
      "timezone": "Asia/Kolkata",
      "latitude": 9.01956,
      "longitude": 76.92261,
      "stationCount": 1
    },
    {
      "id": "in-punch",
      "name": "Pūnch",
      "countryId": "india",
      "timezone": "Asia/Kolkata",
      "latitude": 33.77033,
      "longitude": 74.09254,
      "stationCount": 3
    },
    {
      "id": "in-pune",
      "name": "Pune",
      "countryId": "india",
      "timezone": "Asia/Kolkata",
      "latitude": 18.51957,
      "longitude": 73.85535,
      "stationCount": 7
    },
    {
      "id": "in-puri",
      "name": "Puri",
      "countryId": "india",
      "timezone": "Asia/Kolkata",
      "latitude": 19.79825,
      "longitude": 85.82494,
      "stationCount": 1
    },
    {
      "id": "in-purnia",
      "name": "Purnia",
      "countryId": "india",
      "timezone": "Asia/Kolkata",
      "latitude": 25.77895,
      "longitude": 87.47422,
      "stationCount": 1
    },
    {
      "id": "in-puruliya",
      "name": "Puruliya",
      "countryId": "india",
      "timezone": "Asia/Kolkata",
      "latitude": 23.33062,
      "longitude": 86.36303,
      "stationCount": 1
    },
    {
      "id": "in-radhanpur",
      "name": "Rādhanpur",
      "countryId": "india",
      "timezone": "Asia/Kolkata",
      "latitude": 23.83238,
      "longitude": 71.6047,
      "stationCount": 1
    },
    {
      "id": "in-raga",
      "name": "Raga",
      "countryId": "india",
      "timezone": "Asia/Kolkata",
      "latitude": 27.79931,
      "longitude": 94.07426,
      "stationCount": 1
    },
    {
      "id": "in-raichur",
      "name": "Rāichūr",
      "countryId": "india",
      "timezone": "Asia/Kolkata",
      "latitude": 16.20546,
      "longitude": 77.35567,
      "stationCount": 1
    },
    {
      "id": "in-raigarh",
      "name": "Raigarh",
      "countryId": "india",
      "timezone": "Asia/Kolkata",
      "latitude": 21.89764,
      "longitude": 83.3966,
      "stationCount": 2
    },
    {
      "id": "in-raigarh-2",
      "name": "Raigarh",
      "countryId": "india",
      "timezone": "Asia/Kolkata",
      "latitude": 21.89764,
      "longitude": 83.3966,
      "stationCount": 1
    },
    {
      "id": "in-raipur",
      "name": "Raipur",
      "countryId": "india",
      "timezone": "Asia/Kolkata",
      "latitude": 21.23333,
      "longitude": 81.63333,
      "stationCount": 4
    },
    {
      "id": "in-rairangpur",
      "name": "Rairangpur",
      "countryId": "india",
      "timezone": "Asia/Kolkata",
      "latitude": 22.26675,
      "longitude": 86.17385,
      "stationCount": 1
    },
    {
      "id": "in-rajamahendravaram",
      "name": "Rajamahendravaram",
      "countryId": "india",
      "timezone": "Asia/Kolkata",
      "latitude": 17.00517,
      "longitude": 81.77784,
      "stationCount": 4
    },
    {
      "id": "in-rajkot",
      "name": "Rājkot",
      "countryId": "india",
      "timezone": "Asia/Kolkata",
      "latitude": 22.29161,
      "longitude": 70.79322,
      "stationCount": 5
    },
    {
      "id": "in-ramgundam",
      "name": "Rāmgundam",
      "countryId": "india",
      "timezone": "Asia/Kolkata",
      "latitude": 18.80084,
      "longitude": 79.45206,
      "stationCount": 1
    },
    {
      "id": "in-rampur",
      "name": "Rāmpur",
      "countryId": "india",
      "timezone": "Asia/Kolkata",
      "latitude": 28.81014,
      "longitude": 79.02699,
      "stationCount": 2
    },
    {
      "id": "in-ranchi",
      "name": "Ranchi",
      "countryId": "india",
      "timezone": "Asia/Kolkata",
      "latitude": 23.34316,
      "longitude": 85.3094,
      "stationCount": 6
    },
    {
      "id": "in-ranikhet",
      "name": "Rānikhet",
      "countryId": "india",
      "timezone": "Asia/Kolkata",
      "latitude": 29.64082,
      "longitude": 79.43229,
      "stationCount": 1
    },
    {
      "id": "in-ratlam",
      "name": "Ratlām",
      "countryId": "india",
      "timezone": "Asia/Kolkata",
      "latitude": 23.33033,
      "longitude": 75.04032,
      "stationCount": 2
    },
    {
      "id": "in-ratnagiri",
      "name": "Ratnagiri",
      "countryId": "india",
      "timezone": "Asia/Kolkata",
      "latitude": 16.99154,
      "longitude": 73.31022,
      "stationCount": 1
    },
    {
      "id": "in-rayagada",
      "name": "Rāyagada",
      "countryId": "india",
      "timezone": "Asia/Kolkata",
      "latitude": 19.17132,
      "longitude": 83.41428,
      "stationCount": 1
    },
    {
      "id": "in-rewa",
      "name": "Rewa",
      "countryId": "india",
      "timezone": "Asia/Kolkata",
      "latitude": 24.53256,
      "longitude": 81.29234,
      "stationCount": 1
    },
    {
      "id": "in-rohtak",
      "name": "Rohtak",
      "countryId": "india",
      "timezone": "Asia/Kolkata",
      "latitude": 28.89447,
      "longitude": 76.58917,
      "stationCount": 1
    },
    {
      "id": "in-roing",
      "name": "Roing",
      "countryId": "india",
      "timezone": "Asia/Kolkata",
      "latitude": 28.14318,
      "longitude": 95.84468,
      "stationCount": 1
    },
    {
      "id": "in-rourkela",
      "name": "Rourkela",
      "countryId": "india",
      "timezone": "Asia/Kolkata",
      "latitude": 22.22496,
      "longitude": 84.86414,
      "stationCount": 3
    },
    {
      "id": "in-sabroom",
      "name": "Sabroom",
      "countryId": "india",
      "timezone": "Asia/Kolkata",
      "latitude": 23.00153,
      "longitude": 91.72427,
      "stationCount": 1
    },
    {
      "id": "in-saharsa",
      "name": "Saharsa",
      "countryId": "india",
      "timezone": "Asia/Kolkata",
      "latitude": 25.87498,
      "longitude": 86.59611,
      "stationCount": 1
    },
    {
      "id": "in-saiha",
      "name": "Saiha",
      "countryId": "india",
      "timezone": "Asia/Kolkata",
      "latitude": 22.49183,
      "longitude": 92.98143,
      "stationCount": 1
    },
    {
      "id": "in-salem",
      "name": "Salem",
      "countryId": "india",
      "timezone": "Asia/Kolkata",
      "latitude": 11.65376,
      "longitude": 78.15538,
      "stationCount": 2
    },
    {
      "id": "in-salem-2",
      "name": "Salem",
      "countryId": "india",
      "timezone": "Asia/Kolkata",
      "latitude": 11.65376,
      "longitude": 78.15538,
      "stationCount": 1
    },
    {
      "id": "in-sambalpur",
      "name": "Sambalpur",
      "countryId": "india",
      "timezone": "Asia/Kolkata",
      "latitude": 21.46527,
      "longitude": 83.97573,
      "stationCount": 1
    },
    {
      "id": "in-sangli",
      "name": "Sāngli",
      "countryId": "india",
      "timezone": "Asia/Kolkata",
      "latitude": 16.85438,
      "longitude": 74.56417,
      "stationCount": 5
    },
    {
      "id": "in-sasaram",
      "name": "Sasarām",
      "countryId": "india",
      "timezone": "Asia/Kolkata",
      "latitude": 24.94942,
      "longitude": 84.01645,
      "stationCount": 1
    },
    {
      "id": "in-satana",
      "name": "Satānā",
      "countryId": "india",
      "timezone": "Asia/Kolkata",
      "latitude": 20.59483,
      "longitude": 74.20301,
      "stationCount": 1
    },
    {
      "id": "in-satara",
      "name": "Satara",
      "countryId": "india",
      "timezone": "Asia/Kolkata",
      "latitude": 17.68589,
      "longitude": 73.99333,
      "stationCount": 1
    },
    {
      "id": "in-satna",
      "name": "Satna",
      "countryId": "india",
      "timezone": "Asia/Kolkata",
      "latitude": 24.57726,
      "longitude": 80.82719,
      "stationCount": 1
    },
    {
      "id": "in-saugor",
      "name": "Saugor",
      "countryId": "india",
      "timezone": "Asia/Kolkata",
      "latitude": 23.83877,
      "longitude": 78.73874,
      "stationCount": 2
    },
    {
      "id": "in-sawai-madhopur",
      "name": "Sawai Madhopur",
      "countryId": "india",
      "timezone": "Asia/Kolkata",
      "latitude": 26.02301,
      "longitude": 76.34408,
      "stationCount": 1
    },
    {
      "id": "in-seoni",
      "name": "Seoni",
      "countryId": "india",
      "timezone": "Asia/Kolkata",
      "latitude": 22.08503,
      "longitude": 79.55037,
      "stationCount": 1
    },
    {
      "id": "in-seppa",
      "name": "Seppa",
      "countryId": "india",
      "timezone": "Asia/Kolkata",
      "latitude": 27.36173,
      "longitude": 93.03991,
      "stationCount": 1
    },
    {
      "id": "in-shahdol",
      "name": "Shahdol",
      "countryId": "india",
      "timezone": "Asia/Kolkata",
      "latitude": 23.29356,
      "longitude": 81.3619,
      "stationCount": 1
    },
    {
      "id": "in-shajapur",
      "name": "Shājāpur",
      "countryId": "india",
      "timezone": "Asia/Kolkata",
      "latitude": 23.42637,
      "longitude": 76.27775,
      "stationCount": 1
    },
    {
      "id": "in-sheikhpura",
      "name": "Sheikhpura",
      "countryId": "india",
      "timezone": "Asia/Kolkata",
      "latitude": 25.13994,
      "longitude": 85.84096,
      "stationCount": 1
    },
    {
      "id": "in-shillong",
      "name": "Shillong",
      "countryId": "india",
      "timezone": "Asia/Kolkata",
      "latitude": 25.56892,
      "longitude": 91.88313,
      "stationCount": 5
    },
    {
      "id": "in-shimla",
      "name": "Shimla",
      "countryId": "india",
      "timezone": "Asia/Kolkata",
      "latitude": 31.10442,
      "longitude": 77.16662,
      "stationCount": 4
    },
    {
      "id": "in-shirdi",
      "name": "Shirdi",
      "countryId": "india",
      "timezone": "Asia/Kolkata",
      "latitude": 19.76616,
      "longitude": 74.47738,
      "stationCount": 1
    },
    {
      "id": "in-shirpur",
      "name": "Shirpur",
      "countryId": "india",
      "timezone": "Asia/Kolkata",
      "latitude": 21.34821,
      "longitude": 74.88035,
      "stationCount": 1
    },
    {
      "id": "in-shivpuri",
      "name": "Shivpuri",
      "countryId": "india",
      "timezone": "Asia/Kolkata",
      "latitude": 25.42378,
      "longitude": 77.66223,
      "stationCount": 1
    },
    {
      "id": "in-sholapur",
      "name": "Sholapur",
      "countryId": "india",
      "timezone": "Asia/Kolkata",
      "latitude": 17.67152,
      "longitude": 75.91044,
      "stationCount": 4
    },
    {
      "id": "in-sholapur-2",
      "name": "Sholapur",
      "countryId": "india",
      "timezone": "Asia/Kolkata",
      "latitude": 17.67152,
      "longitude": 75.91044,
      "stationCount": 1
    },
    {
      "id": "in-sikandra",
      "name": "Sikandra",
      "countryId": "india",
      "timezone": "Asia/Kolkata",
      "latitude": 26.36722,
      "longitude": 79.6298,
      "stationCount": 1
    },
    {
      "id": "in-silchar",
      "name": "Silchar",
      "countryId": "india",
      "timezone": "Asia/Kolkata",
      "latitude": 24.82733,
      "longitude": 92.79787,
      "stationCount": 2
    },
    {
      "id": "in-siliguri",
      "name": "Siliguri",
      "countryId": "india",
      "timezone": "Asia/Kolkata",
      "latitude": 26.71004,
      "longitude": 88.42851,
      "stationCount": 4
    },
    {
      "id": "in-silvassa",
      "name": "Silvassa",
      "countryId": "india",
      "timezone": "Asia/Kolkata",
      "latitude": 20.27386,
      "longitude": 72.99673,
      "stationCount": 1
    },
    {
      "id": "in-sironcha",
      "name": "Sironchā",
      "countryId": "india",
      "timezone": "Asia/Kolkata",
      "latitude": 18.84831,
      "longitude": 79.9638,
      "stationCount": 1
    },
    {
      "id": "in-sirsa",
      "name": "Sirsa",
      "countryId": "india",
      "timezone": "Asia/Kolkata",
      "latitude": 29.53489,
      "longitude": 75.02898,
      "stationCount": 1
    },
    {
      "id": "in-sitamarhi",
      "name": "Sītāmarhi",
      "countryId": "india",
      "timezone": "Asia/Kolkata",
      "latitude": 26.59357,
      "longitude": 85.4906,
      "stationCount": 1
    },
    {
      "id": "in-soro",
      "name": "Soro",
      "countryId": "india",
      "timezone": "Asia/Kolkata",
      "latitude": 21.27851,
      "longitude": 86.68833,
      "stationCount": 1
    },
    {
      "id": "in-sri-ganganagar",
      "name": "Sri Ganganagar",
      "countryId": "india",
      "timezone": "Asia/Kolkata",
      "latitude": 29.92009,
      "longitude": 73.87496,
      "stationCount": 1
    },
    {
      "id": "in-srikakulam",
      "name": "Srikakulam",
      "countryId": "india",
      "timezone": "Asia/Kolkata",
      "latitude": 18.2989,
      "longitude": 83.89751,
      "stationCount": 1
    },
    {
      "id": "in-srinagar",
      "name": "Srinagar",
      "countryId": "india",
      "timezone": "Asia/Kolkata",
      "latitude": 34.08565,
      "longitude": 74.80555,
      "stationCount": 6
    },
    {
      "id": "in-sringeri",
      "name": "Sringeri",
      "countryId": "india",
      "timezone": "Asia/Kolkata",
      "latitude": 13.41698,
      "longitude": 75.25271,
      "stationCount": 1
    },
    {
      "id": "in-sultanpur",
      "name": "Sultānpur",
      "countryId": "india",
      "timezone": "Asia/Kolkata",
      "latitude": 26.25788,
      "longitude": 82.07269,
      "stationCount": 1
    },
    {
      "id": "in-sundergarh",
      "name": "Sundergarh",
      "countryId": "india",
      "timezone": "Asia/Kolkata",
      "latitude": 22.11667,
      "longitude": 84.03333,
      "stationCount": 1
    },
    {
      "id": "in-surat",
      "name": "Surat",
      "countryId": "india",
      "timezone": "Asia/Kolkata",
      "latitude": 21.19594,
      "longitude": 72.83023,
      "stationCount": 7
    },
    {
      "id": "in-suratgarh",
      "name": "Suratgarh",
      "countryId": "india",
      "timezone": "Asia/Kolkata",
      "latitude": 29.3215,
      "longitude": 73.89979,
      "stationCount": 1
    },
    {
      "id": "in-surendranagar",
      "name": "Surendranagar",
      "countryId": "india",
      "timezone": "Asia/Kolkata",
      "latitude": 22.72706,
      "longitude": 71.64856,
      "stationCount": 1
    },
    {
      "id": "in-suriapet",
      "name": "Suriāpet",
      "countryId": "india",
      "timezone": "Asia/Kolkata",
      "latitude": 17.14054,
      "longitude": 79.62045,
      "stationCount": 1
    },
    {
      "id": "in-tamenglong",
      "name": "Tamenglong",
      "countryId": "india",
      "timezone": "Asia/Kolkata",
      "latitude": 25.0164,
      "longitude": 93.48545,
      "stationCount": 1
    },
    {
      "id": "in-tanakpur",
      "name": "Tanakpur",
      "countryId": "india",
      "timezone": "Asia/Kolkata",
      "latitude": 29.074,
      "longitude": 80.11139,
      "stationCount": 1
    },
    {
      "id": "in-tawang-town",
      "name": "Tawang Town",
      "countryId": "india",
      "timezone": "Asia/Kolkata",
      "latitude": 27.57417,
      "longitude": 91.795,
      "stationCount": 1
    },
    {
      "id": "in-tehri",
      "name": "Tehri",
      "countryId": "india",
      "timezone": "Asia/Kolkata",
      "latitude": 30.39086,
      "longitude": 78.4803,
      "stationCount": 1
    },
    {
      "id": "in-tezpur",
      "name": "Tezpur",
      "countryId": "india",
      "timezone": "Asia/Kolkata",
      "latitude": 26.63333,
      "longitude": 92.8,
      "stationCount": 1
    },
    {
      "id": "in-tezu",
      "name": "Tezu",
      "countryId": "india",
      "timezone": "Asia/Kolkata",
      "latitude": 27.91256,
      "longitude": 96.12882,
      "stationCount": 1
    },
    {
      "id": "in-thanjavur",
      "name": "Thanjavur",
      "countryId": "india",
      "timezone": "Asia/Kolkata",
      "latitude": 10.78523,
      "longitude": 79.13909,
      "stationCount": 1
    },
    {
      "id": "in-tharad",
      "name": "Tharād",
      "countryId": "india",
      "timezone": "Asia/Kolkata",
      "latitude": 24.39597,
      "longitude": 71.62577,
      "stationCount": 1
    },
    {
      "id": "in-thiruvananthapuram",
      "name": "Thiruvananthapuram",
      "countryId": "india",
      "timezone": "Asia/Kolkata",
      "latitude": 8.4855,
      "longitude": 76.94924,
      "stationCount": 5
    },
    {
      "id": "in-thoothukudi",
      "name": "Thoothukudi",
      "countryId": "india",
      "timezone": "Asia/Kolkata",
      "latitude": 8.76735,
      "longitude": 78.13425,
      "stationCount": 2
    },
    {
      "id": "in-thoothukudi-2",
      "name": "Thoothukudi",
      "countryId": "india",
      "timezone": "Asia/Kolkata",
      "latitude": 8.76735,
      "longitude": 78.13425,
      "stationCount": 1
    },
    {
      "id": "in-thrissur",
      "name": "Thrissur",
      "countryId": "india",
      "timezone": "Asia/Kolkata",
      "latitude": 10.51667,
      "longitude": 76.21667,
      "stationCount": 3
    },
    {
      "id": "in-thrissur-2",
      "name": "Thrissur",
      "countryId": "india",
      "timezone": "Asia/Kolkata",
      "latitude": 10.51667,
      "longitude": 76.21667,
      "stationCount": 1
    },
    {
      "id": "in-tinsukia",
      "name": "Tinsukia",
      "countryId": "india",
      "timezone": "Asia/Kolkata",
      "latitude": 27.48905,
      "longitude": 95.35992,
      "stationCount": 1
    },
    {
      "id": "in-tiruchirappalli",
      "name": "Tiruchirappalli",
      "countryId": "india",
      "timezone": "Asia/Kolkata",
      "latitude": 10.8155,
      "longitude": 78.69651,
      "stationCount": 3
    },
    {
      "id": "in-tiruchirappalli-2",
      "name": "Tiruchirappalli",
      "countryId": "india",
      "timezone": "Asia/Kolkata",
      "latitude": 10.8155,
      "longitude": 78.69651,
      "stationCount": 1
    },
    {
      "id": "in-tirunelveli",
      "name": "Tirunelveli",
      "countryId": "india",
      "timezone": "Asia/Kolkata",
      "latitude": 8.72742,
      "longitude": 77.6838,
      "stationCount": 4
    },
    {
      "id": "in-tirupati",
      "name": "Tirupati",
      "countryId": "india",
      "timezone": "Asia/Kolkata",
      "latitude": 13.63551,
      "longitude": 79.41989,
      "stationCount": 5
    },
    {
      "id": "in-tirupattur",
      "name": "Tirupattur",
      "countryId": "india",
      "timezone": "Asia/Kolkata",
      "latitude": 12.49239,
      "longitude": 78.56804,
      "stationCount": 1
    },
    {
      "id": "in-tral",
      "name": "Trāl",
      "countryId": "india",
      "timezone": "Asia/Kolkata",
      "latitude": 33.92708,
      "longitude": 75.11585,
      "stationCount": 1
    },
    {
      "id": "in-tuensang",
      "name": "Tuensang",
      "countryId": "india",
      "timezone": "Asia/Kolkata",
      "latitude": 26.26704,
      "longitude": 94.82415,
      "stationCount": 1
    },
    {
      "id": "in-tumkur",
      "name": "Tumkūr",
      "countryId": "india",
      "timezone": "Asia/Kolkata",
      "latitude": 13.34136,
      "longitude": 77.1022,
      "stationCount": 1
    },
    {
      "id": "in-tura",
      "name": "Tura",
      "countryId": "india",
      "timezone": "Asia/Kolkata",
      "latitude": 25.51421,
      "longitude": 90.20239,
      "stationCount": 1
    },
    {
      "id": "in-udaipur",
      "name": "Udaipur",
      "countryId": "india",
      "timezone": "Asia/Kolkata",
      "latitude": 24.58584,
      "longitude": 73.71346,
      "stationCount": 6
    },
    {
      "id": "in-udalguri",
      "name": "Udalguri",
      "countryId": "india",
      "timezone": "Asia/Kolkata",
      "latitude": 26.75367,
      "longitude": 92.10215,
      "stationCount": 1
    },
    {
      "id": "in-udhampur",
      "name": "Udhampur",
      "countryId": "india",
      "timezone": "Asia/Kolkata",
      "latitude": 32.92431,
      "longitude": 75.13573,
      "stationCount": 1
    },
    {
      "id": "in-ujjain",
      "name": "Ujjain",
      "countryId": "india",
      "timezone": "Asia/Kolkata",
      "latitude": 23.18239,
      "longitude": 75.77643,
      "stationCount": 2
    },
    {
      "id": "in-ukhimath",
      "name": "Ukhimath",
      "countryId": "india",
      "timezone": "Asia/Kolkata",
      "latitude": 30.51572,
      "longitude": 79.0918,
      "stationCount": 1
    },
    {
      "id": "in-ukhrul",
      "name": "Ukhrul",
      "countryId": "india",
      "timezone": "Asia/Kolkata",
      "latitude": 25.11957,
      "longitude": 94.36417,
      "stationCount": 1
    },
    {
      "id": "in-uri",
      "name": "Uri",
      "countryId": "india",
      "timezone": "Asia/Kolkata",
      "latitude": 34.086,
      "longitude": 74.032,
      "stationCount": 2
    },
    {
      "id": "in-uttarkashi",
      "name": "Uttarkāshi",
      "countryId": "india",
      "timezone": "Asia/Kolkata",
      "latitude": 30.72986,
      "longitude": 78.44342,
      "stationCount": 1
    },
    {
      "id": "in-vadodara",
      "name": "Vadodara",
      "countryId": "india",
      "timezone": "Asia/Kolkata",
      "latitude": 22.29941,
      "longitude": 73.20812,
      "stationCount": 4
    },
    {
      "id": "in-valsad",
      "name": "Valsād",
      "countryId": "india",
      "timezone": "Asia/Kolkata",
      "latitude": 20.61013,
      "longitude": 72.93428,
      "stationCount": 1
    },
    {
      "id": "in-varanasi",
      "name": "Varanasi",
      "countryId": "india",
      "timezone": "Asia/Kolkata",
      "latitude": 25.31668,
      "longitude": 83.01041,
      "stationCount": 5
    },
    {
      "id": "in-vellore",
      "name": "Vellore",
      "countryId": "india",
      "timezone": "Asia/Kolkata",
      "latitude": 12.9184,
      "longitude": 79.13255,
      "stationCount": 3
    },
    {
      "id": "in-veraval",
      "name": "Verāval",
      "countryId": "india",
      "timezone": "Asia/Kolkata",
      "latitude": 20.9077,
      "longitude": 70.36786,
      "stationCount": 2
    },
    {
      "id": "in-vijayapura",
      "name": "Vijayapura",
      "countryId": "india",
      "timezone": "Asia/Kolkata",
      "latitude": 16.82442,
      "longitude": 75.71537,
      "stationCount": 1
    },
    {
      "id": "in-vijayawada",
      "name": "Vijayawada",
      "countryId": "india",
      "timezone": "Asia/Kolkata",
      "latitude": 16.50745,
      "longitude": 80.6466,
      "stationCount": 5
    },
    {
      "id": "in-visakhapatnam",
      "name": "Visakhapatnam",
      "countryId": "india",
      "timezone": "Asia/Kolkata",
      "latitude": 17.68009,
      "longitude": 83.20161,
      "stationCount": 4
    },
    {
      "id": "in-warangal",
      "name": "Warangal",
      "countryId": "india",
      "timezone": "Asia/Kolkata",
      "latitude": 18,
      "longitude": 79.58333,
      "stationCount": 4
    },
    {
      "id": "in-wardha",
      "name": "Wardha",
      "countryId": "india",
      "timezone": "Asia/Kolkata",
      "latitude": 20.73933,
      "longitude": 78.59784,
      "stationCount": 1
    },
    {
      "id": "in-washim",
      "name": "Wāshīm",
      "countryId": "india",
      "timezone": "Asia/Kolkata",
      "latitude": 20.11128,
      "longitude": 77.133,
      "stationCount": 1
    },
    {
      "id": "in-williamnagar",
      "name": "Williamnagar",
      "countryId": "india",
      "timezone": "Asia/Kolkata",
      "latitude": 25.4955,
      "longitude": 90.6168,
      "stationCount": 1
    },
    {
      "id": "in-wokha",
      "name": "Wokha",
      "countryId": "india",
      "timezone": "Asia/Kolkata",
      "latitude": 26.09717,
      "longitude": 94.25817,
      "stationCount": 1
    },
    {
      "id": "in-yavatmal",
      "name": "Yavatmāl",
      "countryId": "india",
      "timezone": "Asia/Kolkata",
      "latitude": 20.39324,
      "longitude": 78.13201,
      "stationCount": 1
    },
    {
      "id": "in-ziro",
      "name": "Ziro",
      "countryId": "india",
      "timezone": "Asia/Kolkata",
      "latitude": 27.59497,
      "longitude": 93.83854,
      "stationCount": 1
    },
    {
      "id": "in-zunheboto",
      "name": "Zunheboto",
      "countryId": "india",
      "timezone": "Asia/Kolkata",
      "latitude": 25.96667,
      "longitude": 94.51667,
      "stationCount": 1
    }
  ],
  "stations": [
    {
      "id": "in-abu-akashvani-mount-abu-lrs-103-5",
      "name": "Akashvani Mount ABU LRS",
      "freqMhz": 103.5,
      "cityId": "in-abu",
      "description": "Akashvani FM transmitter listed by Prasar Bharati for Mount ABU, Rajasthan. Frequency: 103.5 MHz. Service: LRS. Transmitter: 10 kW FM. Studio: MP.",
      "tags": [
        "fm",
        "official",
        "india",
        "prasarbharati",
        "akashvani",
        "rajasthan",
        "lrs"
      ],
      "source": "Prasar Bharati Akashvani stations PDF",
      "sourceUrl": "https://prasarbharati.gov.in/wp-content/uploads/2025/12/Akashvani_Stations.pdf",
      "verifiedAt": "2026-03-24",
      "curated": false
    },
    {
      "id": "in-achalpur-akashvani-achalpur-relay-100-1",
      "name": "Akashvani Achalpur Relay",
      "freqMhz": 100.1,
      "cityId": "in-achalpur",
      "description": "Akashvani FM transmitter listed by Prasar Bharati for Achalpur, Maharashtra. Frequency: 100.1 MHz. Service: Relay. Transmitter: 100 W FM.",
      "tags": [
        "fm",
        "official",
        "india",
        "prasarbharati",
        "akashvani",
        "maharashtra",
        "relay"
      ],
      "source": "Prasar Bharati Akashvani stations PDF",
      "sourceUrl": "https://prasarbharati.gov.in/wp-content/uploads/2025/12/Akashvani_Stations.pdf",
      "verifiedAt": "2026-03-24",
      "curated": false
    },
    {
      "id": "in-adilabad-akashvani-adilabad-lrs-100-2",
      "name": "Akashvani Adilabad LRS",
      "freqMhz": 100.2,
      "cityId": "in-adilabad",
      "description": "Akashvani FM transmitter listed by Prasar Bharati for Adilabad, Telangana. Frequency: 100.2 MHz. Service: LRS. Transmitter: 10 kW FM. Studio: MP.",
      "tags": [
        "fm",
        "official",
        "india",
        "prasarbharati",
        "akashvani",
        "telangana",
        "lrs"
      ],
      "source": "Prasar Bharati Akashvani stations PDF",
      "sourceUrl": "https://prasarbharati.gov.in/wp-content/uploads/2025/12/Akashvani_Stations.pdf",
      "verifiedAt": "2026-03-24",
      "curated": false
    },
    {
      "id": "in-adoni-akashvani-adoni-relay-100-1",
      "name": "Akashvani Adoni Relay",
      "freqMhz": 100.1,
      "cityId": "in-adoni",
      "description": "Akashvani FM transmitter listed by Prasar Bharati for Adoni, Andhra Pradesh. Frequency: 100.1 MHz. Service: Relay. Transmitter: 100 W FM.",
      "tags": [
        "fm",
        "official",
        "india",
        "prasarbharati",
        "akashvani",
        "andhra-pradesh",
        "relay"
      ],
      "source": "Prasar Bharati Akashvani stations PDF",
      "sourceUrl": "https://prasarbharati.gov.in/wp-content/uploads/2025/12/Akashvani_Stations.pdf",
      "verifiedAt": "2026-03-24",
      "curated": false
    },