{
  "country": {
    "id": "switzerland",
    "code": "CH",
    "name": "Switzerland",
    "regionId": "europe",
    "cityCount": 421,
    "stationCount": 1219,
    "sourceCount": 1,
    "sources": [
      {
        "name": "BAKOM FM coordination archive",
        "url": "https://www.bakom.admin.ch/en/location-of-radio-transmitters"
      }
    ],
    "lastImportedAt": "2026-03-24",
    "coverageStatus": "active",
    "coverageTier": "official-substantial",
    "coverageScope": "national",
    "sourceQuality": "official-regulator",
    "hasOfficialImporter": true,
    "coverageScore": 88
  },
  "cities": [
    {
      "id": "ch-aarau",
      "name": "Aarau",
      "countryId": "switzerland",
      "timezone": "Europe/Zurich",
      "latitude": 47.39254,
      "longitude": 8.04422,
      "stationCount": 1
    },
    {
      "id": "ch-acquarossa",
      "name": "Acquarossa",
      "countryId": "switzerland",
      "timezone": "Europe/Zurich",
      "latitude": 46.45473,
      "longitude": 8.94261,
      "stationCount": 3
    },
    {
      "id": "ch-adelboden",
      "name": "Adelboden",
      "countryId": "switzerland",
      "timezone": "Europe/Zurich",
      "latitude": 46.49142,
      "longitude": 7.56031,
      "stationCount": 3
    },
    {
      "id": "ch-adelboden-2",
      "name": "Adelboden",
      "countryId": "switzerland",
      "timezone": "Europe/Zurich",
      "latitude": 46.49142,
      "longitude": 7.56031,
      "stationCount": 1
    },
    {
      "id": "ch-aesch",
      "name": "Aesch",
      "countryId": "switzerland",
      "timezone": "Europe/Zurich",
      "latitude": 47.47104,
      "longitude": 7.5973,
      "stationCount": 1
    },
    {
      "id": "ch-agarn",
      "name": "Agarn",
      "countryId": "switzerland",
      "timezone": "Europe/Zurich",
      "latitude": 46.29749,
      "longitude": 7.66322,
      "stationCount": 6
    },
    {
      "id": "ch-agarn-2",
      "name": "Agarn",
      "countryId": "switzerland",
      "timezone": "Europe/Zurich",
      "latitude": 46.29749,
      "longitude": 7.66322,
      "stationCount": 1
    },
    {
      "id": "ch-airolo",
      "name": "Airolo",
      "countryId": "switzerland",
      "timezone": "Europe/Zurich",
      "latitude": 46.52855,
      "longitude": 8.61189,
      "stationCount": 5
    },
    {
      "id": "ch-airolo-2",
      "name": "Airolo",
      "countryId": "switzerland",
      "timezone": "Europe/Zurich",
      "latitude": 46.52855,
      "longitude": 8.61189,
      "stationCount": 1
    },
    {
      "id": "ch-altlandenberg",
      "name": "Altlandenberg",
      "countryId": "switzerland",
      "timezone": "Europe/Zurich",
      "latitude": 47.37209,
      "longitude": 8.86816,
      "stationCount": 2
    },
    {
      "id": "ch-amsoldingen",
      "name": "Amsoldingen",
      "countryId": "switzerland",
      "timezone": "Europe/Zurich",
      "latitude": 46.72754,
      "longitude": 7.58247,
      "stationCount": 3
    },
    {
      "id": "ch-andeer",
      "name": "Andeer",
      "countryId": "switzerland",
      "timezone": "Europe/Zurich",
      "latitude": 46.6034,
      "longitude": 9.42614,
      "stationCount": 6
    },
    {
      "id": "ch-andeer-2",
      "name": "Andeer",
      "countryId": "switzerland",
      "timezone": "Europe/Zurich",
      "latitude": 46.6034,
      "longitude": 9.42614,
      "stationCount": 4
    },
    {
      "id": "ch-andeer-3",
      "name": "Andeer",
      "countryId": "switzerland",
      "timezone": "Europe/Zurich",
      "latitude": 46.6034,
      "longitude": 9.42614,
      "stationCount": 4
    },
    {
      "id": "ch-andermatt",
      "name": "Andermatt",
      "countryId": "switzerland",
      "timezone": "Europe/Zurich",
      "latitude": 46.63565,
      "longitude": 8.59388,
      "stationCount": 4
    },
    {
      "id": "ch-andermatt-2",
      "name": "Andermatt",
      "countryId": "switzerland",
      "timezone": "Europe/Zurich",
      "latitude": 46.63565,
      "longitude": 8.59388,
      "stationCount": 4
    },
    {
      "id": "ch-andermatt-3",
      "name": "Andermatt",
      "countryId": "switzerland",
      "timezone": "Europe/Zurich",
      "latitude": 46.63565,
      "longitude": 8.59388,
      "stationCount": 1
    },
    {
      "id": "ch-andermatt-4",
      "name": "Andermatt",
      "countryId": "switzerland",
      "timezone": "Europe/Zurich",
      "latitude": 46.63565,
      "longitude": 8.59388,
      "stationCount": 1
    },
    {
      "id": "ch-arbaz",
      "name": "Arbaz",
      "countryId": "switzerland",
      "timezone": "Europe/Zurich",
      "latitude": 46.2781,
      "longitude": 7.38542,
      "stationCount": 2
    },
    {
      "id": "ch-arboldswil",
      "name": "Arboldswil",
      "countryId": "switzerland",
      "timezone": "Europe/Zurich",
      "latitude": 47.41438,
      "longitude": 7.71755,
      "stationCount": 1
    },
    {
      "id": "ch-arosa",
      "name": "Arosa",
      "countryId": "switzerland",
      "timezone": "Europe/Zurich",
      "latitude": 46.77793,
      "longitude": 9.67621,
      "stationCount": 4
    },
    {
      "id": "ch-arosa-2",
      "name": "Arosa",
      "countryId": "switzerland",
      "timezone": "Europe/Zurich",
      "latitude": 46.77793,
      "longitude": 9.67621,
      "stationCount": 4
    },
    {
      "id": "ch-arosa-3",
      "name": "Arosa",
      "countryId": "switzerland",
      "timezone": "Europe/Zurich",
      "latitude": 46.77793,
      "longitude": 9.67621,
      "stationCount": 1
    },
    {
      "id": "ch-arth",
      "name": "Arth",
      "countryId": "switzerland",
      "timezone": "Europe/Zurich",
      "latitude": 47.06337,
      "longitude": 8.52349,
      "stationCount": 7
    },
    {
      "id": "ch-attinghausen",
      "name": "Attinghausen",
      "countryId": "switzerland",
      "timezone": "Europe/Zurich",
      "latitude": 46.86255,
      "longitude": 8.63036,
      "stationCount": 5
    },
    {
      "id": "ch-au",
      "name": "Au",
      "countryId": "switzerland",
      "timezone": "Europe/Zurich",
      "latitude": 47.43093,
      "longitude": 9.63448,
      "stationCount": 1
    },
    {
      "id": "ch-auvernier",
      "name": "Auvernier",
      "countryId": "switzerland",
      "timezone": "Europe/Zurich",
      "latitude": 46.97545,
      "longitude": 6.87903,
      "stationCount": 1
    },
    {
      "id": "ch-bad-ragaz",
      "name": "Bad Ragaz",
      "countryId": "switzerland",
      "timezone": "Europe/Zurich",
      "latitude": 47.00601,
      "longitude": 9.50266,
      "stationCount": 3
    },
    {
      "id": "ch-bad-ragaz-2",
      "name": "Bad Ragaz",
      "countryId": "switzerland",
      "timezone": "Europe/Zurich",
      "latitude": 47.00601,
      "longitude": 9.50266,
      "stationCount": 1
    },
    {
      "id": "ch-baden",
      "name": "Baden",
      "countryId": "switzerland",
      "timezone": "Europe/Zurich",
      "latitude": 47.47333,
      "longitude": 8.30592,
      "stationCount": 2
    },
    {
      "id": "ch-bagnes",
      "name": "Bagnes",
      "countryId": "switzerland",
      "timezone": "Europe/Zurich",
      "latitude": 46.08333,
      "longitude": 7.21667,
      "stationCount": 3
    },
    {
      "id": "ch-bagnes-2",
      "name": "Bagnes",
      "countryId": "switzerland",
      "timezone": "Europe/Zurich",
      "latitude": 46.08333,
      "longitude": 7.21667,
      "stationCount": 1
    },
    {
      "id": "ch-ballaigues",
      "name": "Ballaigues",
      "countryId": "switzerland",
      "timezone": "Europe/Zurich",
      "latitude": 46.72984,
      "longitude": 6.41357,
      "stationCount": 3
    },
    {
      "id": "ch-ballaigues-2",
      "name": "Ballaigues",
      "countryId": "switzerland",
      "timezone": "Europe/Zurich",
      "latitude": 46.72984,
      "longitude": 6.41357,
      "stationCount": 3
    },
    {
      "id": "ch-balsthal",
      "name": "Balsthal",
      "countryId": "switzerland",
      "timezone": "Europe/Zurich",
      "latitude": 47.31613,
      "longitude": 7.69318,
      "stationCount": 4
    },
    {
      "id": "ch-balsthal-2",
      "name": "Balsthal",
      "countryId": "switzerland",
      "timezone": "Europe/Zurich",
      "latitude": 47.31613,
      "longitude": 7.69318,
      "stationCount": 3
    },
    {
      "id": "ch-bas-vully",
      "name": "Bas-Vully",
      "countryId": "switzerland",
      "timezone": "Europe/Zurich",
      "latitude": 46.96194,
      "longitude": 7.11251,
      "stationCount": 1
    },
    {
      "id": "ch-basse-nendaz",
      "name": "Basse-Nendaz",
      "countryId": "switzerland",
      "timezone": "Europe/Zurich",
      "latitude": 46.18993,
      "longitude": 7.31209,
      "stationCount": 4
    },
    {
      "id": "ch-bassecourt",
      "name": "Bassecourt",
      "countryId": "switzerland",
      "timezone": "Europe/Zurich",
      "latitude": 47.33808,
      "longitude": 7.24373,
      "stationCount": 3
    },
    {
      "id": "ch-batterkinden",
      "name": "Bätterkinden",
      "countryId": "switzerland",
      "timezone": "Europe/Zurich",
      "latitude": 47.13164,
      "longitude": 7.53817,
      "stationCount": 2
    },
    {
      "id": "ch-bauen",
      "name": "Bauen",
      "countryId": "switzerland",
      "timezone": "Europe/Zurich",
      "latitude": 46.93559,
      "longitude": 8.57836,
      "stationCount": 1
    },
    {
      "id": "ch-bauma",
      "name": "Bauma",
      "countryId": "switzerland",
      "timezone": "Europe/Zurich",
      "latitude": 47.36745,
      "longitude": 8.87905,
      "stationCount": 1
    },
    {
      "id": "ch-beatenberg",
      "name": "Beatenberg",
      "countryId": "switzerland",
      "timezone": "Europe/Zurich",
      "latitude": 46.69896,
      "longitude": 7.79428,
      "stationCount": 3
    },
    {
      "id": "ch-beckenried",
      "name": "Beckenried",
      "countryId": "switzerland",
      "timezone": "Europe/Zurich",
      "latitude": 46.96653,
      "longitude": 8.47575,
      "stationCount": 3
    },
    {
      "id": "ch-bellerive",
      "name": "Bellerive",
      "countryId": "switzerland",
      "timezone": "Europe/Zurich",
      "latitude": 46.92345,
      "longitude": 7.02209,
      "stationCount": 3
    },
    {
      "id": "ch-bellerive-2",
      "name": "Bellerive",
      "countryId": "switzerland",
      "timezone": "Europe/Zurich",
      "latitude": 46.92345,
      "longitude": 7.02209,
      "stationCount": 1
    },
    {
      "id": "ch-benken",
      "name": "Benken",
      "countryId": "switzerland",
      "timezone": "Europe/Zurich",
      "latitude": 47.19942,
      "longitude": 9.00735,
      "stationCount": 2
    },
    {
      "id": "ch-bergun",
      "name": "Bergün",
      "countryId": "switzerland",
      "timezone": "Europe/Zurich",
      "latitude": 46.62934,
      "longitude": 9.74762,
      "stationCount": 5
    },
    {
      "id": "ch-bettingen",
      "name": "Bettingen",
      "countryId": "switzerland",
      "timezone": "Europe/Zurich",
      "latitude": 47.57039,
      "longitude": 7.66425,
      "stationCount": 6
    },
    {
      "id": "ch-bironico",
      "name": "Bironico",
      "countryId": "switzerland",
      "timezone": "Europe/Zurich",
      "latitude": 46.11367,
      "longitude": 8.93324,
      "stationCount": 1
    },
    {
      "id": "ch-bironico-2",
      "name": "Bironico",
      "countryId": "switzerland",
      "timezone": "Europe/Zurich",
      "latitude": 46.11367,
      "longitude": 8.93324,
      "stationCount": 5
    },
    {
      "id": "ch-bironico-3",
      "name": "Bironico",
      "countryId": "switzerland",
      "timezone": "Europe/Zurich",
      "latitude": 46.11367,
      "longitude": 8.93324,
      "stationCount": 5
    },
    {
      "id": "ch-birr",
      "name": "Birr",
      "countryId": "switzerland",
      "timezone": "Europe/Zurich",
      "latitude": 47.43432,
      "longitude": 8.20891,
      "stationCount": 3
    },
    {
      "id": "ch-bitsch",
      "name": "Bitsch",
      "countryId": "switzerland",
      "timezone": "Europe/Zurich",
      "latitude": 46.33779,
      "longitude": 8.01088,
      "stationCount": 5
    },
    {
      "id": "ch-bodio",
      "name": "Bodio",
      "countryId": "switzerland",
      "timezone": "Europe/Zurich",
      "latitude": 46.37808,
      "longitude": 8.90991,
      "stationCount": 5
    },
    {
      "id": "ch-bodio-2",
      "name": "Bodio",
      "countryId": "switzerland",
      "timezone": "Europe/Zurich",
      "latitude": 46.37808,
      "longitude": 8.90991,
      "stationCount": 5
    },
    {
      "id": "ch-boltigen",
      "name": "Boltigen",
      "countryId": "switzerland",
      "timezone": "Europe/Zurich",
      "latitude": 46.62847,
      "longitude": 7.39054,
      "stationCount": 3
    },
    {
      "id": "ch-boltigen-2",
      "name": "Boltigen",
      "countryId": "switzerland",
      "timezone": "Europe/Zurich",
      "latitude": 46.62847,
      "longitude": 7.39054,
      "stationCount": 3
    },
    {
      "id": "ch-boncourt",
      "name": "Boncourt",
      "countryId": "switzerland",
      "timezone": "Europe/Zurich",
      "latitude": 47.49493,
      "longitude": 7.01297,
      "stationCount": 3
    },
    {
      "id": "ch-bonigen",
      "name": "Bönigen",
      "countryId": "switzerland",
      "timezone": "Europe/Zurich",
      "latitude": 46.68736,
      "longitude": 7.8935,
      "stationCount": 3
    },
    {
      "id": "ch-brienz",
      "name": "Brienz",
      "countryId": "switzerland",
      "timezone": "Europe/Zurich",
      "latitude": 46.7545,
      "longitude": 8.03847,
      "stationCount": 1
    },
    {
      "id": "ch-brienz-2",
      "name": "Brienz",
      "countryId": "switzerland",
      "timezone": "Europe/Zurich",
      "latitude": 46.7545,
      "longitude": 8.03847,
      "stationCount": 3
    },
    {
      "id": "ch-brienz-3",
      "name": "Brienz",
      "countryId": "switzerland",
      "timezone": "Europe/Zurich",
      "latitude": 46.7545,
      "longitude": 8.03847,
      "stationCount": 1
    },
    {
      "id": "ch-brienz-4",
      "name": "Brienz",
      "countryId": "switzerland",
      "timezone": "Europe/Zurich",
      "latitude": 46.7545,
      "longitude": 8.03847,
      "stationCount": 1
    },
    {
      "id": "ch-bronschhofen",
      "name": "Bronschhofen",
      "countryId": "switzerland",
      "timezone": "Europe/Zurich",
      "latitude": 47.47835,
      "longitude": 9.03454,
      "stationCount": 1
    },
    {
      "id": "ch-brusio",
      "name": "Brusio",
      "countryId": "switzerland",
      "timezone": "Europe/Zurich",
      "latitude": 46.25953,
      "longitude": 10.12385,
      "stationCount": 5
    },
    {
      "id": "ch-bruttelen",
      "name": "Brüttelen",
      "countryId": "switzerland",
      "timezone": "Europe/Zurich",
      "latitude": 47.02269,
      "longitude": 7.14793,
      "stationCount": 5
    },
    {
      "id": "ch-buchholterberg",
      "name": "Buchholterberg",
      "countryId": "switzerland",
      "timezone": "Europe/Zurich",
      "latitude": 46.81351,
      "longitude": 7.67463,
      "stationCount": 3
    },
    {
      "id": "ch-buchs",
      "name": "Buchs",
      "countryId": "switzerland",
      "timezone": "Europe/Zurich",
      "latitude": 47.16743,
      "longitude": 9.47794,
      "stationCount": 1
    },
    {
      "id": "ch-buochs",
      "name": "Buochs",
      "countryId": "switzerland",
      "timezone": "Europe/Zurich",
      "latitude": 46.97398,
      "longitude": 8.42279,
      "stationCount": 5
    },
    {
      "id": "ch-burgistein",
      "name": "Burgistein",
      "countryId": "switzerland",
      "timezone": "Europe/Zurich",
      "latitude": 46.78464,
      "longitude": 7.49988,
      "stationCount": 3
    },
    {
      "id": "ch-buttwil",
      "name": "Buttwil",
      "countryId": "switzerland",
      "timezone": "Europe/Zurich",
      "latitude": 47.26828,
      "longitude": 8.31064,
      "stationCount": 2
    },
    {
      "id": "ch-camorino",
      "name": "Camorino",
      "countryId": "switzerland",
      "timezone": "Europe/Zurich",
      "latitude": 46.16483,
      "longitude": 9.00547,
      "stationCount": 1
    },
    {
      "id": "ch-castel-san-pietro",
      "name": "Castel San Pietro",
      "countryId": "switzerland",
      "timezone": "Europe/Zurich",
      "latitude": 45.86211,
      "longitude": 9.00843,
      "stationCount": 7
    },
    {
      "id": "ch-cazis",
      "name": "Cazis",
      "countryId": "switzerland",
      "timezone": "Europe/Zurich",
      "latitude": 46.7194,
      "longitude": 9.43271,
      "stationCount": 5
    },
    {
      "id": "ch-cevio",
      "name": "Cevio",
      "countryId": "switzerland",
      "timezone": "Europe/Zurich",
      "latitude": 46.31479,
      "longitude": 8.60332,
      "stationCount": 5
    },
    {
      "id": "ch-cevio-2",
      "name": "Cevio",
      "countryId": "switzerland",
      "timezone": "Europe/Zurich",
      "latitude": 46.31479,
      "longitude": 8.60332,
      "stationCount": 5
    },
    {
      "id": "ch-chalais",
      "name": "Chalais",
      "countryId": "switzerland",
      "timezone": "Europe/Zurich",
      "latitude": 46.26758,
      "longitude": 7.51145,
      "stationCount": 2
    },
    {
      "id": "ch-chardonne",
      "name": "Chardonne",
      "countryId": "switzerland",
      "timezone": "Europe/Zurich",
      "latitude": 46.47676,
      "longitude": 6.8268,
      "stationCount": 3
    },
    {
      "id": "ch-charmey",
      "name": "Charmey",
      "countryId": "switzerland",
      "timezone": "Europe/Zurich",
      "latitude": 46.61957,
      "longitude": 7.16486,
      "stationCount": 3
    },
    {
      "id": "ch-charmey-2",
      "name": "Charmey",
      "countryId": "switzerland",
      "timezone": "Europe/Zurich",
      "latitude": 46.61957,
      "longitude": 7.16486,
      "stationCount": 1
    },
    {
      "id": "ch-chateau-doex",
      "name": "Château-d'Oex",
      "countryId": "switzerland",
      "timezone": "Europe/Zurich",
      "latitude": 46.47455,
      "longitude": 7.13155,
      "stationCount": 4
    },
    {
      "id": "ch-chatel-saint-denis",
      "name": "Châtel-Saint-Denis",
      "countryId": "switzerland",
      "timezone": "Europe/Zurich",
      "latitude": 46.52691,
      "longitude": 6.90083,
      "stationCount": 1
    },
    {
      "id": "ch-cheseaux-noreaz",
      "name": "Cheseaux-Noréaz",
      "countryId": "switzerland",
      "timezone": "Europe/Zurich",
      "latitude": 46.78184,
      "longitude": 6.67029,
      "stationCount": 5
    },
    {
      "id": "ch-chippis",
      "name": "Chippis",
      "countryId": "switzerland",
      "timezone": "Europe/Zurich",
      "latitude": 46.2802,
      "longitude": 7.53962,
      "stationCount": 3
    },
    {
      "id": "ch-churwalden",
      "name": "Churwalden",
      "countryId": "switzerland",
      "timezone": "Europe/Zurich",
      "latitude": 46.78143,
      "longitude": 9.54377,
      "stationCount": 6
    },
    {
      "id": "ch-colla",
      "name": "Colla",
      "countryId": "switzerland",
      "timezone": "Europe/Zurich",
      "latitude": 46.09247,
      "longitude": 9.05415,
      "stationCount": 5
    },
    {
      "id": "ch-cordast",
      "name": "Cordast",
      "countryId": "switzerland",
      "timezone": "Europe/Zurich",
      "latitude": 46.87598,
      "longitude": 7.15212,
      "stationCount": 1
    },
    {
      "id": "ch-corgemont",
      "name": "Corgémont",
      "countryId": "switzerland",
      "timezone": "Europe/Zurich",
      "latitude": 47.19457,
      "longitude": 7.14517,
      "stationCount": 2
    },
    {
      "id": "ch-corgemont-2",
      "name": "Corgémont",
      "countryId": "switzerland",
      "timezone": "Europe/Zurich",
      "latitude": 47.19457,
      "longitude": 7.14517,
      "stationCount": 3
    },
    {
      "id": "ch-courrendlin",
      "name": "Courrendlin",
      "countryId": "switzerland",
      "timezone": "Europe/Zurich",
      "latitude": 47.33853,
      "longitude": 7.37243,
      "stationCount": 3
    },
    {
      "id": "ch-courrendlin-2",
      "name": "Courrendlin",
      "countryId": "switzerland",
      "timezone": "Europe/Zurich",
      "latitude": 47.33853,
      "longitude": 7.37243,
      "stationCount": 1
    },
    {
      "id": "ch-court",
      "name": "Court",
      "countryId": "switzerland",
      "timezone": "Europe/Zurich",
      "latitude": 47.23956,
      "longitude": 7.33655,
      "stationCount": 3
    },
    {
      "id": "ch-court-2",
      "name": "Court",
      "countryId": "switzerland",
      "timezone": "Europe/Zurich",
      "latitude": 47.23956,
      "longitude": 7.33655,
      "stationCount": 1
    },
    {
      "id": "ch-dagmersellen",
      "name": "Dagmersellen",
      "countryId": "switzerland",
      "timezone": "Europe/Zurich",
      "latitude": 47.21405,
      "longitude": 7.98519,
      "stationCount": 3
    },
    {
      "id": "ch-davos",
      "name": "Davos",
      "countryId": "switzerland",
      "timezone": "Europe/Zurich",
      "latitude": 46.80429,
      "longitude": 9.83723,
      "stationCount": 4
    },
    {
      "id": "ch-davos-2",
      "name": "Davos",
      "countryId": "switzerland",
      "timezone": "Europe/Zurich",
      "latitude": 46.80429,
      "longitude": 9.83723,
      "stationCount": 4
    },
    {
      "id": "ch-davos-3",
      "name": "Davos",
      "countryId": "switzerland",
      "timezone": "Europe/Zurich",
      "latitude": 46.80429,
      "longitude": 9.83723,
      "stationCount": 1
    },
    {
      "id": "ch-delemont",
      "name": "Delémont",
      "countryId": "switzerland",
      "timezone": "Europe/Zurich",
      "latitude": 47.36493,
      "longitude": 7.34453,
      "stationCount": 3
    },
    {
      "id": "ch-delemont-2",
      "name": "Delémont",
      "countryId": "switzerland",
      "timezone": "Europe/Zurich",
      "latitude": 47.36493,
      "longitude": 7.34453,
      "stationCount": 2
    },
    {
      "id": "ch-delemont-3",
      "name": "Delémont",
      "countryId": "switzerland",
      "timezone": "Europe/Zurich",
      "latitude": 47.36493,
      "longitude": 7.34453,
      "stationCount": 2
    },
    {
      "id": "ch-diemtigen",
      "name": "Diemtigen",
      "countryId": "switzerland",
      "timezone": "Europe/Zurich",
      "latitude": 46.64928,
      "longitude": 7.56477,
      "stationCount": 3
    },
    {
      "id": "ch-disentis",
      "name": "Disentis",
      "countryId": "switzerland",
      "timezone": "Europe/Zurich",
      "latitude": 46.70341,
      "longitude": 8.8509,
      "stationCount": 6
    },
    {
      "id": "ch-disentis-2",
      "name": "Disentis",
      "countryId": "switzerland",
      "timezone": "Europe/Zurich",
      "latitude": 46.70341,
      "longitude": 8.8509,
      "stationCount": 6
    },
    {
      "id": "ch-donat",
      "name": "Donat",
      "countryId": "switzerland",
      "timezone": "Europe/Zurich",
      "latitude": 46.62843,
      "longitude": 9.4297,
      "stationCount": 6
    },
    {
      "id": "ch-dorenaz",
      "name": "Dorénaz",
      "countryId": "switzerland",
      "timezone": "Europe/Zurich",
      "latitude": 46.14892,
      "longitude": 7.04292,
      "stationCount": 1
    },
    {
      "id": "ch-ebnat-kappel",
      "name": "Ebnat-Kappel",
      "countryId": "switzerland",
      "timezone": "Europe/Zurich",
      "latitude": 47.26195,
      "longitude": 9.12473,
      "stationCount": 1
    },
    {
      "id": "ch-eggiwil",
      "name": "Eggiwil",
      "countryId": "switzerland",
      "timezone": "Europe/Zurich",
      "latitude": 46.87575,
      "longitude": 7.79567,
      "stationCount": 1
    },
    {
      "id": "ch-eggiwil-2",
      "name": "Eggiwil",
      "countryId": "switzerland",
      "timezone": "Europe/Zurich",
      "latitude": 46.87575,
      "longitude": 7.79567,
      "stationCount": 3
    },
    {
      "id": "ch-einsiedeln",
      "name": "Einsiedeln",
      "countryId": "switzerland",
      "timezone": "Europe/Zurich",
      "latitude": 47.12849,
      "longitude": 8.74735,
      "stationCount": 3
    },
    {
      "id": "ch-elgg-neu-elgg",
      "name": "Elgg / Neu-Elgg",
      "countryId": "switzerland",
      "timezone": "Europe/Zurich",
      "latitude": 47.50166,
      "longitude": 8.86366,
      "stationCount": 1
    },
    {
      "id": "ch-engelberg",
      "name": "Engelberg",
      "countryId": "switzerland",
      "timezone": "Europe/Zurich",
      "latitude": 46.82107,
      "longitude": 8.40133,
      "stationCount": 6
    },
    {
      "id": "ch-engi",
      "name": "Engi",
      "countryId": "switzerland",
      "timezone": "Europe/Zurich",
      "latitude": 46.98192,
      "longitude": 9.1528,
      "stationCount": 2
    },
    {
      "id": "ch-engi-2",
      "name": "Engi",
      "countryId": "switzerland",
      "timezone": "Europe/Zurich",
      "latitude": 46.98192,
      "longitude": 9.1528,
      "stationCount": 3
    },
    {
      "id": "ch-ennenda",
      "name": "Ennenda",
      "countryId": "switzerland",
      "timezone": "Europe/Zurich",
      "latitude": 47.03363,
      "longitude": 9.07888,
      "stationCount": 3
    },
    {
      "id": "ch-ennetburgen",
      "name": "Ennetbürgen",
      "countryId": "switzerland",
      "timezone": "Europe/Zurich",
      "latitude": 46.98423,
      "longitude": 8.41003,
      "stationCount": 4
    },
    {
      "id": "ch-enney",
      "name": "Enney",
      "countryId": "switzerland",
      "timezone": "Europe/Zurich",
      "latitude": 46.56669,
      "longitude": 7.08418,
      "stationCount": 3
    },
    {
      "id": "ch-eriz",
      "name": "Eriz",
      "countryId": "switzerland",
      "timezone": "Europe/Zurich",
      "latitude": 46.78773,
      "longitude": 7.77102,
      "stationCount": 3
    },
    {
      "id": "ch-erlach",
      "name": "Erlach",
      "countryId": "switzerland",
      "timezone": "Europe/Zurich",
      "latitude": 47.0422,
      "longitude": 7.09728,
      "stationCount": 1
    },
    {
      "id": "ch-ermatingen",
      "name": "Ermatingen",
      "countryId": "switzerland",
      "timezone": "Europe/Zurich",
      "latitude": 47.67057,
      "longitude": 9.08573,
      "stationCount": 3
    },
    {
      "id": "ch-erschwil",
      "name": "Erschwil",
      "countryId": "switzerland",
      "timezone": "Europe/Zurich",
      "latitude": 47.37415,
      "longitude": 7.54116,
      "stationCount": 1
    },
    {
      "id": "ch-escholzmatt",
      "name": "Escholzmatt",
      "countryId": "switzerland",
      "timezone": "Europe/Zurich",
      "latitude": 46.9135,
      "longitude": 7.93426,
      "stationCount": 3
    },
    {
      "id": "ch-escholzmatt-2",
      "name": "Escholzmatt",
      "countryId": "switzerland",
      "timezone": "Europe/Zurich",
      "latitude": 46.9135,
      "longitude": 7.93426,
      "stationCount": 2
    },
    {
      "id": "ch-estavayer-le-lac",
      "name": "Estavayer-le-Lac",
      "countryId": "switzerland",
      "timezone": "Europe/Zurich",
      "latitude": 46.84876,
      "longitude": 6.8465,
      "stationCount": 1
    },
    {
      "id": "ch-evolene",
      "name": "Evolène",
      "countryId": "switzerland",
      "timezone": "Europe/Zurich",
      "latitude": 46.11422,
      "longitude": 7.49407,
      "stationCount": 4
    },
    {
      "id": "ch-faido",
      "name": "Faido",
      "countryId": "switzerland",
      "timezone": "Europe/Zurich",
      "latitude": 46.477,
      "longitude": 8.80125,
      "stationCount": 3
    },
    {
      "id": "ch-faido-2",
      "name": "Faido",
      "countryId": "switzerland",
      "timezone": "Europe/Zurich",
      "latitude": 46.477,
      "longitude": 8.80125,
      "stationCount": 3
    },
    {
      "id": "ch-faido-3",
      "name": "Faido",
      "countryId": "switzerland",
      "timezone": "Europe/Zurich",
      "latitude": 46.477,
      "longitude": 8.80125,
      "stationCount": 5
    },
    {
      "id": "ch-faido-4",
      "name": "Faido",
      "countryId": "switzerland",
      "timezone": "Europe/Zurich",
      "latitude": 46.477,
      "longitude": 8.80125,
      "stationCount": 1
    },
    {
      "id": "ch-falera",
      "name": "Falera",
      "countryId": "switzerland",
      "timezone": "Europe/Zurich",
      "latitude": 46.80131,
      "longitude": 9.23086,
      "stationCount": 1
    },
    {
      "id": "ch-feuerthalen",
      "name": "Feuerthalen",
      "countryId": "switzerland",
      "timezone": "Europe/Zurich",
      "latitude": 47.69054,
      "longitude": 8.64357,
      "stationCount": 5
    },
    {
      "id": "ch-feusisberg",
      "name": "Feusisberg",
      "countryId": "switzerland",
      "timezone": "Europe/Zurich",
      "latitude": 47.18707,
      "longitude": 8.74724,
      "stationCount": 4
    },
    {
      "id": "ch-feusisberg-2",
      "name": "Feusisberg",
      "countryId": "switzerland",
      "timezone": "Europe/Zurich",
      "latitude": 47.18707,
      "longitude": 8.74724,
      "stationCount": 4
    },
    {
      "id": "ch-fiesch",
      "name": "Fiesch",
      "countryId": "switzerland",
      "timezone": "Europe/Zurich",
      "latitude": 46.39981,
      "longitude": 8.13533,
      "stationCount": 3
    },
    {
      "id": "ch-fiesch-2",
      "name": "Fiesch",
      "countryId": "switzerland",
      "timezone": "Europe/Zurich",
      "latitude": 46.39981,
      "longitude": 8.13533,
      "stationCount": 1
    },
    {
      "id": "ch-filisur",
      "name": "Filisur",
      "countryId": "switzerland",
      "timezone": "Europe/Zurich",
      "latitude": 46.67303,
      "longitude": 9.68592,
      "stationCount": 4
    },
    {
      "id": "ch-fischingen",
      "name": "Fischingen",
      "countryId": "switzerland",
      "timezone": "Europe/Zurich",
      "latitude": 47.41422,
      "longitude": 8.96862,
      "stationCount": 3
    },
    {
      "id": "ch-flamatt",
      "name": "Flamatt",
      "countryId": "switzerland",
      "timezone": "Europe/Zurich",
      "latitude": 46.88994,
      "longitude": 7.32204,
      "stationCount": 1
    },
    {
      "id": "ch-fleurier",
      "name": "Fleurier",
      "countryId": "switzerland",
      "timezone": "Europe/Zurich",
      "latitude": 46.90224,
      "longitude": 6.58253,
      "stationCount": 3
    },
    {
      "id": "ch-fluhli",
      "name": "Flühli",
      "countryId": "switzerland",
      "timezone": "Europe/Zurich",
      "latitude": 46.88391,
      "longitude": 8.01558,
      "stationCount": 3
    },
    {
      "id": "ch-fontainemelon",
      "name": "Fontainemelon",
      "countryId": "switzerland",
      "timezone": "Europe/Zurich",
      "latitude": 47.05495,
      "longitude": 6.8868,
      "stationCount": 1
    },
    {
      "id": "ch-fontainemelon-2",
      "name": "Fontainemelon",
      "countryId": "switzerland",
      "timezone": "Europe/Zurich",
      "latitude": 47.05495,
      "longitude": 6.8868,
      "stationCount": 1
    },
    {
      "id": "ch-fribourg",
      "name": "Fribourg",
      "countryId": "switzerland",
      "timezone": "Europe/Zurich",
      "latitude": 46.80237,
      "longitude": 7.15128,
      "stationCount": 4
    },
    {
      "id": "ch-fribourg-2",
      "name": "Fribourg",
      "countryId": "switzerland",
      "timezone": "Europe/Zurich",
      "latitude": 46.80237,
      "longitude": 7.15128,
      "stationCount": 2
    },
    {
      "id": "ch-frick",
      "name": "Frick",
      "countryId": "switzerland",
      "timezone": "Europe/Zurich",
      "latitude": 47.51169,
      "longitude": 8.02471,
      "stationCount": 6
    },
    {
      "id": "ch-gais",
      "name": "Gais",
      "countryId": "switzerland",
      "timezone": "Europe/Zurich",
      "latitude": 47.3615,
      "longitude": 9.45356,
      "stationCount": 1
    },
    {
      "id": "ch-gampel",
      "name": "Gampel",
      "countryId": "switzerland",
      "timezone": "Europe/Zurich",
      "latitude": 46.31599,
      "longitude": 7.7421,
      "stationCount": 1
    },
    {
      "id": "ch-geuensee",
      "name": "Geuensee",
      "countryId": "switzerland",
      "timezone": "Europe/Zurich",
      "latitude": 47.1997,
      "longitude": 8.10689,
      "stationCount": 3
    },
    {
      "id": "ch-giornico",
      "name": "Giornico",
      "countryId": "switzerland",
      "timezone": "Europe/Zurich",
      "latitude": 46.40141,
      "longitude": 8.87369,
      "stationCount": 5
    },
    {
      "id": "ch-givisiez",
      "name": "Givisiez",
      "countryId": "switzerland",
      "timezone": "Europe/Zurich",
      "latitude": 46.81201,
      "longitude": 7.12639,
      "stationCount": 1
    },
    {
      "id": "ch-glarus",
      "name": "Glarus",
      "countryId": "switzerland",
      "timezone": "Europe/Zurich",
      "latitude": 47.04057,
      "longitude": 9.06804,
      "stationCount": 1
    },
    {
      "id": "ch-glovelier",
      "name": "Glovelier",
      "countryId": "switzerland",
      "timezone": "Europe/Zurich",
      "latitude": 47.33534,
      "longitude": 7.20556,
      "stationCount": 1
    },
    {
      "id": "ch-goldach",
      "name": "Goldach",
      "countryId": "switzerland",
      "timezone": "Europe/Zurich",
      "latitude": 47.47401,
      "longitude": 9.46711,
      "stationCount": 3
    },
    {
      "id": "ch-gontenschwil",
      "name": "Gontenschwil",
      "countryId": "switzerland",
      "timezone": "Europe/Zurich",
      "latitude": 47.27166,
      "longitude": 8.14396,
      "stationCount": 2
    },
    {
      "id": "ch-gordevio",
      "name": "Gordevio",
      "countryId": "switzerland",
      "timezone": "Europe/Zurich",
      "latitude": 46.22604,
      "longitude": 8.74309,
      "stationCount": 5
    },
    {
      "id": "ch-gordola",
      "name": "Gordola",
      "countryId": "switzerland",
      "timezone": "Europe/Zurich",
      "latitude": 46.18256,
      "longitude": 8.86657,
      "stationCount": 5
    },
    {
      "id": "ch-gottlieben",
      "name": "Gottlieben",
      "countryId": "switzerland",
      "timezone": "Europe/Zurich",
      "latitude": 47.6638,
      "longitude": 9.13371,
      "stationCount": 1
    },
    {
      "id": "ch-grand-savagnier",
      "name": "Grand-Savagnier",
      "countryId": "switzerland",
      "timezone": "Europe/Zurich",
      "latitude": 47.05101,
      "longitude": 6.95489,
      "stationCount": 2
    },
    {
      "id": "ch-grandcour",
      "name": "Grandcour",
      "countryId": "switzerland",
      "timezone": "Europe/Zurich",
      "latitude": 46.87185,
      "longitude": 6.9284,
      "stationCount": 4
    },
    {
      "id": "ch-grellingen",
      "name": "Grellingen",
      "countryId": "switzerland",
      "timezone": "Europe/Zurich",
      "latitude": 47.44231,
      "longitude": 7.58906,
      "stationCount": 5
    },
    {
      "id": "ch-grindelwald",
      "name": "Grindelwald",
      "countryId": "switzerland",
      "timezone": "Europe/Zurich",
      "latitude": 46.62396,
      "longitude": 8.03601,
      "stationCount": 1
    },
    {
      "id": "ch-grusch",
      "name": "Grüsch",
      "countryId": "switzerland",
      "timezone": "Europe/Zurich",
      "latitude": 46.97965,
      "longitude": 9.64639,
      "stationCount": 4
    },
    {
      "id": "ch-gstaad",
      "name": "Gstaad",
      "countryId": "switzerland",
      "timezone": "Europe/Zurich",
      "latitude": 46.47215,
      "longitude": 7.28685,
      "stationCount": 6
    },
    {
      "id": "ch-guggisberg",
      "name": "Guggisberg",
      "countryId": "switzerland",
      "timezone": "Europe/Zurich",
      "latitude": 46.76756,
      "longitude": 7.32946,
      "stationCount": 3
    },
    {
      "id": "ch-gurtnellen",
      "name": "Gurtnellen",
      "countryId": "switzerland",
      "timezone": "Europe/Zurich",
      "latitude": 46.73814,
      "longitude": 8.62843,
      "stationCount": 3
    },
    {
      "id": "ch-gutenswil",
      "name": "Gutenswil",
      "countryId": "switzerland",
      "timezone": "Europe/Zurich",
      "latitude": 47.38387,
      "longitude": 8.71763,
      "stationCount": 2
    },
    {
      "id": "ch-hallau",
      "name": "Hallau",
      "countryId": "switzerland",
      "timezone": "Europe/Zurich",
      "latitude": 47.69648,
      "longitude": 8.45827,
      "stationCount": 1
    },
    {
      "id": "ch-herdern",
      "name": "Herdern",
      "countryId": "switzerland",
      "timezone": "Europe/Zurich",
      "latitude": 47.60304,
      "longitude": 8.91077,
      "stationCount": 3
    },
    {
      "id": "ch-herisau",
      "name": "Herisau",
      "countryId": "switzerland",
      "timezone": "Europe/Zurich",
      "latitude": 47.38615,
      "longitude": 9.27916,
      "stationCount": 1
    },
    {
      "id": "ch-hinterrhein",
      "name": "Hinterrhein",
      "countryId": "switzerland",
      "timezone": "Europe/Zurich",
      "latitude": 46.53333,
      "longitude": 9.2,
      "stationCount": 5
    },
    {
      "id": "ch-hinterrhein-2",
      "name": "Hinterrhein",
      "countryId": "switzerland",
      "timezone": "Europe/Zurich",
      "latitude": 46.53333,
      "longitude": 9.2,
      "stationCount": 1
    },
    {
      "id": "ch-hombrechtikon-eichberg",
      "name": "Hombrechtikon / Eichberg",
      "countryId": "switzerland",
      "timezone": "Europe/Zurich",
      "latitude": 47.24964,
      "longitude": 8.77218,
      "stationCount": 1
    },
    {
      "id": "ch-homburg",
      "name": "Homburg",
      "countryId": "switzerland",
      "timezone": "Europe/Zurich",
      "latitude": 47.63469,
      "longitude": 9.00756,
      "stationCount": 1
    },
    {
      "id": "ch-huttwil",
      "name": "Huttwil",
      "countryId": "switzerland",
      "timezone": "Europe/Zurich",
      "latitude": 47.11502,
      "longitude": 7.86209,
      "stationCount": 1
    },
    {
      "id": "ch-igis",
      "name": "Igis",
      "countryId": "switzerland",
      "timezone": "Europe/Zurich",
      "latitude": 46.94531,
      "longitude": 9.57218,
      "stationCount": 7
    },
    {
      "id": "ch-ilanz",
      "name": "Ilanz",
      "countryId": "switzerland",
      "timezone": "Europe/Zurich",
      "latitude": 46.77413,
      "longitude": 9.20461,
      "stationCount": 5
    },
    {
      "id": "ch-intragna",
      "name": "Intragna",
      "countryId": "switzerland",
      "timezone": "Europe/Zurich",
      "latitude": 46.17751,
      "longitude": 8.70016,
      "stationCount": 5
    },
    {
      "id": "ch-intragna-2",
      "name": "Intragna",
      "countryId": "switzerland",
      "timezone": "Europe/Zurich",
      "latitude": 46.17751,
      "longitude": 8.70016,
      "stationCount": 5
    },
    {
      "id": "ch-iserables",
      "name": "Iserables",
      "countryId": "switzerland",
      "timezone": "Europe/Zurich",
      "latitude": 46.16228,
      "longitude": 7.24474,
      "stationCount": 2
    },
    {
      "id": "ch-jaun",
      "name": "Jaun",
      "countryId": "switzerland",
      "timezone": "Europe/Zurich",
      "latitude": 46.61131,
      "longitude": 7.27593,
      "stationCount": 3
    },
    {
      "id": "ch-jaun-2",
      "name": "Jaun",
      "countryId": "switzerland",
      "timezone": "Europe/Zurich",
      "latitude": 46.61131,
      "longitude": 7.27593,
      "stationCount": 3
    },
    {
      "id": "ch-jaun-3",
      "name": "Jaun",
      "countryId": "switzerland",
      "timezone": "Europe/Zurich",
      "latitude": 46.61131,
      "longitude": 7.27593,
      "stationCount": 3
    },
    {
      "id": "ch-kandersteg",
      "name": "Kandersteg",
      "countryId": "switzerland",
      "timezone": "Europe/Zurich",
      "latitude": 46.49467,
      "longitude": 7.67326,
      "stationCount": 3
    },
    {
      "id": "ch-kleinlutzel",
      "name": "Kleinlützel",
      "countryId": "switzerland",
      "timezone": "Europe/Zurich",
      "latitude": 47.42518,
      "longitude": 7.41607,
      "stationCount": 3
    },
    {
      "id": "ch-klosters-serneus",
      "name": "Klosters Serneus",
      "countryId": "switzerland",
      "timezone": "Europe/Zurich",
      "latitude": 46.88918,
      "longitude": 9.83826,
      "stationCount": 4
    },
    {
      "id": "ch-klosters-serneus-2",
      "name": "Klosters Serneus",
      "countryId": "switzerland",
      "timezone": "Europe/Zurich",
      "latitude": 46.88918,
      "longitude": 9.83826,
      "stationCount": 1
    },
    {
      "id": "ch-koblenz",
      "name": "Koblenz",
      "countryId": "switzerland",
      "timezone": "Europe/Zurich",
      "latitude": 47.60972,
      "longitude": 8.2375,
      "stationCount": 2
    },
    {
      "id": "ch-kollbrunn",
      "name": "Kollbrunn",
      "countryId": "switzerland",
      "timezone": "Europe/Zurich",
      "latitude": 47.45793,
      "longitude": 8.78295,
      "stationCount": 1
    },
    {
      "id": "ch-kreuzlingen",
      "name": "Kreuzlingen",
      "countryId": "switzerland",
      "timezone": "Europe/Zurich",
      "latitude": 47.65051,
      "longitude": 9.17504,
      "stationCount": 2
    },
    {
      "id": "ch-kriens",
      "name": "Kriens",
      "countryId": "switzerland",
      "timezone": "Europe/Zurich",
      "latitude": 47.0311,
      "longitude": 8.28547,
      "stationCount": 2
    },
    {
      "id": "ch-kublis",
      "name": "Küblis",
      "countryId": "switzerland",
      "timezone": "Europe/Zurich",
      "latitude": 46.91446,
      "longitude": 9.77929,
      "stationCount": 5
    },
    {
      "id": "ch-labbaye",
      "name": "L'Abbaye",
      "countryId": "switzerland",
      "timezone": "Europe/Zurich",
      "latitude": 46.64966,
      "longitude": 6.31907,
      "stationCount": 3
    },
    {
      "id": "ch-labbaye-2",
      "name": "L'Abbaye",
      "countryId": "switzerland",
      "timezone": "Europe/Zurich",
      "latitude": 46.64966,
      "longitude": 6.31907,
      "stationCount": 1
    },
    {
      "id": "ch-la-brevine",
      "name": "La Brévine",
      "countryId": "switzerland",
      "timezone": "Europe/Zurich",
      "latitude": 46.98055,
      "longitude": 6.60639,
      "stationCount": 3
    },
    {
      "id": "ch-la-brevine-2",
      "name": "La Brévine",
      "countryId": "switzerland",
      "timezone": "Europe/Zurich",
      "latitude": 46.98055,
      "longitude": 6.60639,
      "stationCount": 1
    },
    {
      "id": "ch-la-chaux-de-fonds",
      "name": "La Chaux-de-Fonds",
      "countryId": "switzerland",
      "timezone": "Europe/Zurich",
      "latitude": 47.09993,
      "longitude": 6.82586,
      "stationCount": 3
    },
    {
      "id": "ch-lajoux",
      "name": "Lajoux",
      "countryId": "switzerland",
      "timezone": "Europe/Zurich",
      "latitude": 47.27893,
      "longitude": 7.13726,
      "stationCount": 1
    },
    {
      "id": "ch-lalden",
      "name": "Lalden",
      "countryId": "switzerland",
      "timezone": "Europe/Zurich",
      "latitude": 46.29951,
      "longitude": 7.90235,
      "stationCount": 3
    },
    {
      "id": "ch-lalden-2",
      "name": "Lalden",
      "countryId": "switzerland",
      "timezone": "Europe/Zurich",
      "latitude": 46.29951,
      "longitude": 7.90235,
      "stationCount": 1
    },
    {
      "id": "ch-langendorf",
      "name": "Langendorf",
      "countryId": "switzerland",
      "timezone": "Europe/Zurich",
      "latitude": 47.21974,
      "longitude": 7.51469,
      "stationCount": 3
    },
    {
      "id": "ch-langnau",
      "name": "Langnau",
      "countryId": "switzerland",
      "timezone": "Europe/Zurich",
      "latitude": 46.93936,
      "longitude": 7.78738,
      "stationCount": 3
    },
    {
      "id": "ch-langnau-2",
      "name": "Langnau",
      "countryId": "switzerland",
      "timezone": "Europe/Zurich",
      "latitude": 46.93936,
      "longitude": 7.78738,
      "stationCount": 1
    },
    {
      "id": "ch-lauerz",
      "name": "Lauerz",
      "countryId": "switzerland",
      "timezone": "Europe/Zurich",
      "latitude": 47.03327,
      "longitude": 8.58339,
      "stationCount": 3
    },
    {
      "id": "ch-lauffohr-brugg",
      "name": "Lauffohr (Brugg)",
      "countryId": "switzerland",
      "timezone": "Europe/Zurich",
      "latitude": 47.50154,
      "longitude": 8.23122,
      "stationCount": 1
    },
    {
      "id": "ch-lauterbrunnen",
      "name": "Lauterbrunnen",
      "countryId": "switzerland",
      "timezone": "Europe/Zurich",
      "latitude": 46.59307,
      "longitude": 7.90938,
      "stationCount": 3
    },
    {
      "id": "ch-lauterbrunnen-2",
      "name": "Lauterbrunnen",
      "countryId": "switzerland",
      "timezone": "Europe/Zurich",
      "latitude": 46.59307,
      "longitude": 7.90938,
      "stationCount": 1
    },
    {
      "id": "ch-lavertezzo",
      "name": "Lavertezzo",
      "countryId": "switzerland",
      "timezone": "Europe/Zurich",
      "latitude": 46.25893,
      "longitude": 8.83756,
      "stationCount": 5
    },
    {
      "id": "ch-le-bouveret",
      "name": "Le Bouveret",
      "countryId": "switzerland",
      "timezone": "Europe/Zurich",
      "latitude": 46.38319,
      "longitude": 6.85963,
      "stationCount": 5
    },
    {
      "id": "ch-le-locle",
      "name": "Le Locle",
      "countryId": "switzerland",
      "timezone": "Europe/Zurich",
      "latitude": 47.05619,
      "longitude": 6.74913,
      "stationCount": 3
    },
    {
      "id": "ch-leissigen",
      "name": "Leissigen",
      "countryId": "switzerland",
      "timezone": "Europe/Zurich",
      "latitude": 46.6546,
      "longitude": 7.77548,
      "stationCount": 3
    },
    {
      "id": "ch-lenk",
      "name": "Lenk",
      "countryId": "switzerland",
      "timezone": "Europe/Zurich",
      "latitude": 46.45826,
      "longitude": 7.44298,
      "stationCount": 3
    },
    {
      "id": "ch-lenk-2",
      "name": "Lenk",
      "countryId": "switzerland",
      "timezone": "Europe/Zurich",
      "latitude": 46.45826,
      "longitude": 7.44298,
      "stationCount": 1
    },
    {
      "id": "ch-les-brenets",
      "name": "Les Brenets",
      "countryId": "switzerland",
      "timezone": "Europe/Zurich",
      "latitude": 47.06774,
      "longitude": 6.70478,
      "stationCount": 3
    },
    {
      "id": "ch-leuk",
      "name": "Leuk",
      "countryId": "switzerland",
      "timezone": "Europe/Zurich",
      "latitude": 46.31736,
      "longitude": 7.63412,
      "stationCount": 3
    },
    {
      "id": "ch-leukerbad",
      "name": "Leukerbad",
      "countryId": "switzerland",
      "timezone": "Europe/Zurich",
      "latitude": 46.37943,
      "longitude": 7.62687,
      "stationCount": 3
    },
    {
      "id": "ch-leukerbad-2",
      "name": "Leukerbad",
      "countryId": "switzerland",
      "timezone": "Europe/Zurich",
      "latitude": 46.37943,
      "longitude": 7.62687,
      "stationCount": 1
    },
    {
      "id": "ch-leuzigen",
      "name": "Leuzigen",
      "countryId": "switzerland",
      "timezone": "Europe/Zurich",
      "latitude": 47.17458,
      "longitude": 7.45775,
      "stationCount": 2
    },
    {
      "id": "ch-liddes",
      "name": "Liddes",
      "countryId": "switzerland",
      "timezone": "Europe/Zurich",
      "latitude": 45.99249,
      "longitude": 7.18729,
      "stationCount": 3
    },
    {
      "id": "ch-liddes-2",
      "name": "Liddes",
      "countryId": "switzerland",
      "timezone": "Europe/Zurich",
      "latitude": 45.99249,
      "longitude": 7.18729,
      "stationCount": 4
    },
    {
      "id": "ch-liestal",
      "name": "Liestal",
      "countryId": "switzerland",
      "timezone": "Europe/Zurich",
      "latitude": 47.48455,
      "longitude": 7.73446,
      "stationCount": 3
    },
    {
      "id": "ch-ligerz",
      "name": "Ligerz",
      "countryId": "switzerland",
      "timezone": "Europe/Zurich",
      "latitude": 47.08368,
      "longitude": 7.13476,
      "stationCount": 1
    },
    {
      "id": "ch-linden",
      "name": "Linden",
      "countryId": "switzerland",
      "timezone": "Europe/Zurich",
      "latitude": 46.8469,
      "longitude": 7.67831,
      "stationCount": 1
    },
    {
      "id": "ch-linthal",
      "name": "Linthal",
      "countryId": "switzerland",
      "timezone": "Europe/Zurich",
      "latitude": 46.92127,
      "longitude": 8.99799,
      "stationCount": 3
    },
    {
      "id": "ch-littau",
      "name": "Littau",
      "countryId": "switzerland",
      "timezone": "Europe/Zurich",
      "latitude": 47.05,
      "longitude": 8.26274,
      "stationCount": 2
    },
    {
      "id": "ch-littau-2",
      "name": "Littau",
      "countryId": "switzerland",
      "timezone": "Europe/Zurich",
      "latitude": 47.05,
      "longitude": 8.26274,
      "stationCount": 3
    },
    {
      "id": "ch-lohn",
      "name": "Lohn",
      "countryId": "switzerland",
      "timezone": "Europe/Zurich",
      "latitude": 47.75508,
      "longitude": 8.66847,
      "stationCount": 3
    },
    {
      "id": "ch-lungern",
      "name": "Lungern",
      "countryId": "switzerland",
      "timezone": "Europe/Zurich",
      "latitude": 46.78578,
      "longitude": 8.15984,
      "stationCount": 3
    },
    {
      "id": "ch-luzern",
      "name": "Luzern",
      "countryId": "switzerland",
      "timezone": "Europe/Zurich",
      "latitude": 47.05048,
      "longitude": 8.30635,
      "stationCount": 1
    },
    {
      "id": "ch-maggia",
      "name": "Maggia",
      "countryId": "switzerland",
      "timezone": "Europe/Zurich",
      "latitude": 46.24689,
      "longitude": 8.7062,
      "stationCount": 5
    },
    {
      "id": "ch-magglingen",
      "name": "Magglingen",
      "countryId": "switzerland",
      "timezone": "Europe/Zurich",
      "latitude": 47.139,
      "longitude": 7.21407,
      "stationCount": 2
    },
    {
      "id": "ch-magglingen-2",
      "name": "Magglingen",
      "countryId": "switzerland",
      "timezone": "Europe/Zurich",
      "latitude": 47.139,
      "longitude": 7.21407,
      "stationCount": 7
    },
    {
      "id": "ch-magglingen-3",
      "name": "Magglingen",
      "countryId": "switzerland",
      "timezone": "Europe/Zurich",
      "latitude": 47.139,
      "longitude": 7.21407,
      "stationCount": 2
    },
    {
      "id": "ch-malix",
      "name": "Malix",
      "countryId": "switzerland",
      "timezone": "Europe/Zurich",
      "latitude": 46.81248,
      "longitude": 9.53196,
      "stationCount": 4
    },
    {
      "id": "ch-malix-2",
      "name": "Malix",
      "countryId": "switzerland",
      "timezone": "Europe/Zurich",
      "latitude": 46.81248,
      "longitude": 9.53196,
      "stationCount": 1
    },
    {
      "id": "ch-mammern",
      "name": "Mammern",
      "countryId": "switzerland",
      "timezone": "Europe/Zurich",
      "latitude": 47.64625,
      "longitude": 8.91519,
      "stationCount": 3
    },
    {
      "id": "ch-marin-epagnier",
      "name": "Marin-Epagnier",
      "countryId": "switzerland",
      "timezone": "Europe/Zurich",
      "latitude": 47.01017,
      "longitude": 6.99941,
      "stationCount": 1
    },
    {
      "id": "ch-martigny-combe",
      "name": "Martigny-Combe",
      "countryId": "switzerland",
      "timezone": "Europe/Zurich",
      "latitude": 46.07817,
      "longitude": 7.05099,
      "stationCount": 3
    },
    {
      "id": "ch-martigny-combe-2",
      "name": "Martigny-Combe",
      "countryId": "switzerland",
      "timezone": "Europe/Zurich",
      "latitude": 46.07817,
      "longitude": 7.05099,
      "stationCount": 1
    },
    {
      "id": "ch-martigny-ville",
      "name": "Martigny-Ville",
      "countryId": "switzerland",
      "timezone": "Europe/Zurich",
      "latitude": 46.10276,
      "longitude": 7.07245,
      "stationCount": 2
    },
    {
      "id": "ch-martigny-ville-2",
      "name": "Martigny-Ville",
      "countryId": "switzerland",
      "timezone": "Europe/Zurich",
      "latitude": 46.10276,
      "longitude": 7.07245,
      "stationCount": 5
    },
    {
      "id": "ch-matten",
      "name": "Matten",
      "countryId": "switzerland",
      "timezone": "Europe/Zurich",
      "latitude": 46.67833,
      "longitude": 7.86889,
      "stationCount": 1
    },
    {
      "id": "ch-meiringen",
      "name": "Meiringen",
      "countryId": "switzerland",
      "timezone": "Europe/Zurich",
      "latitude": 46.72709,
      "longitude": 8.1872,
      "stationCount": 3
    },
    {
      "id": "ch-meiringen-2",
      "name": "Meiringen",
      "countryId": "switzerland",
      "timezone": "Europe/Zurich",
      "latitude": 46.72709,
      "longitude": 8.1872,
      "stationCount": 3
    },
    {
      "id": "ch-menzingen",
      "name": "Menzingen",
      "countryId": "switzerland",
      "timezone": "Europe/Zurich",
      "latitude": 47.17764,
      "longitude": 8.59215,
      "stationCount": 2
    },
    {
      "id": "ch-menzingen-2",
      "name": "Menzingen",
      "countryId": "switzerland",
      "timezone": "Europe/Zurich",
      "latitude": 47.17764,
      "longitude": 8.59215,
      "stationCount": 2
    },
    {
      "id": "ch-mervelier",
      "name": "Mervelier",
      "countryId": "switzerland",
      "timezone": "Europe/Zurich",
      "latitude": 47.34368,
      "longitude": 7.49988,
      "stationCount": 1
    },
    {
      "id": "ch-mesocco",
      "name": "Mesocco",
      "countryId": "switzerland",
      "timezone": "Europe/Zurich",
      "latitude": 46.3939,
      "longitude": 9.23333,
      "stationCount": 5
    },
    {
      "id": "ch-mesocco-2",
      "name": "Mesocco",
      "countryId": "switzerland",
      "timezone": "Europe/Zurich",
      "latitude": 46.3939,
      "longitude": 9.23333,
      "stationCount": 5
    },
    {
      "id": "ch-miege",
      "name": "Miège",
      "countryId": "switzerland",
      "timezone": "Europe/Zurich",
      "latitude": 46.31119,
      "longitude": 7.54701,
      "stationCount": 1
    },
    {
      "id": "ch-montagnola",
      "name": "Montagnola",
      "countryId": "switzerland",
      "timezone": "Europe/Zurich",
      "latitude": 45.98323,
      "longitude": 8.91786,
      "stationCount": 7
    },
    {
      "id": "ch-morbio-superiore",
      "name": "Morbio Superiore",
      "countryId": "switzerland",
      "timezone": "Europe/Zurich",
      "latitude": 45.86004,
      "longitude": 9.02318,
      "stationCount": 5
    },
    {
      "id": "ch-morcote",
      "name": "Morcote",
      "countryId": "switzerland",
      "timezone": "Europe/Zurich",
      "latitude": 45.925,
      "longitude": 8.916,
      "stationCount": 5
    },
    {
      "id": "ch-morgins",
      "name": "Morgins",
      "countryId": "switzerland",
      "timezone": "Europe/Zurich",
      "latitude": 46.239,
      "longitude": 6.852,
      "stationCount": 4
    },
    {
      "id": "ch-moudon",
      "name": "Moudon",
      "countryId": "switzerland",
      "timezone": "Europe/Zurich",
      "latitude": 46.66758,
      "longitude": 6.79781,
      "stationCount": 7
    },
    {
      "id": "ch-moutier",
      "name": "Moutier",
      "countryId": "switzerland",
      "timezone": "Europe/Zurich",
      "latitude": 47.27818,
      "longitude": 7.36951,
      "stationCount": 3
    },
    {
      "id": "ch-moutier-2",
      "name": "Moutier",
      "countryId": "switzerland",
      "timezone": "Europe/Zurich",
      "latitude": 47.27818,
      "longitude": 7.36951,
      "stationCount": 3
    },
    {
      "id": "ch-muhleberg",
      "name": "Mühleberg",
      "countryId": "switzerland",
      "timezone": "Europe/Zurich",
      "latitude": 46.95466,
      "longitude": 7.26102,
      "stationCount": 3
    },
    {
      "id": "ch-munsingen",
      "name": "Münsingen",
      "countryId": "switzerland",
      "timezone": "Europe/Zurich",
      "latitude": 46.87298,
      "longitude": 7.561,
      "stationCount": 3
    },
    {
      "id": "ch-muralto",
      "name": "Muralto",
      "countryId": "switzerland",
      "timezone": "Europe/Zurich",
      "latitude": 46.17323,
      "longitude": 8.80219,
      "stationCount": 6
    },
    {
      "id": "ch-mustair",
      "name": "Müstair",
      "countryId": "switzerland",
      "timezone": "Europe/Zurich",
      "latitude": 46.62683,
      "longitude": 10.44624,
      "stationCount": 5
    },
    {
      "id": "ch-mustair-2",
      "name": "Müstair",
      "countryId": "switzerland",
      "timezone": "Europe/Zurich",
      "latitude": 46.62683,
      "longitude": 10.44624,
      "stationCount": 2
    },
    {
      "id": "ch-neuchatel",
      "name": "Neuchâtel",
      "countryId": "switzerland",
      "timezone": "Europe/Zurich",
      "latitude": 46.99179,
      "longitude": 6.931,
      "stationCount": 1
    },
    {
      "id": "ch-neuhausen",
      "name": "Neuhausen",
      "countryId": "switzerland",
      "timezone": "Europe/Zurich",
      "latitude": 47.68579,
      "longitude": 8.61474,
      "stationCount": 2
    },
    {
      "id": "ch-niederurnen",
      "name": "Niederurnen",
      "countryId": "switzerland",
      "timezone": "Europe/Zurich",
      "latitude": 47.12598,
      "longitude": 9.05428,
      "stationCount": 3
    },
    {
      "id": "ch-nods",
      "name": "Nods",
      "countryId": "switzerland",
      "timezone": "Europe/Zurich",
      "latitude": 47.11487,
      "longitude": 7.08014,
      "stationCount": 6
    },
    {
      "id": "ch-noiraigue",
      "name": "Noiraigue",
      "countryId": "switzerland",
      "timezone": "Europe/Zurich",
      "latitude": 46.95622,
      "longitude": 6.72462,
      "stationCount": 3
    },
    {
      "id": "ch-oberbuchsiten",
      "name": "Oberbuchsiten",
      "countryId": "switzerland",
      "timezone": "Europe/Zurich",
      "latitude": 47.31334,
      "longitude": 7.76836,
      "stationCount": 1
    },
    {
      "id": "ch-oberburg",
      "name": "Oberburg",
      "countryId": "switzerland",
      "timezone": "Europe/Zurich",
      "latitude": 47.03665,
      "longitude": 7.62745,
      "stationCount": 1
    },
    {
      "id": "ch-oberegg",
      "name": "Oberegg",
      "countryId": "switzerland",
      "timezone": "Europe/Zurich",
      "latitude": 47.42531,
      "longitude": 9.55134,
      "stationCount": 2
    },
    {
      "id": "ch-oberhof",
      "name": "Oberhof",
      "countryId": "switzerland",
      "timezone": "Europe/Zurich",
      "latitude": 47.44874,
      "longitude": 8.00273,
      "stationCount": 1
    },
    {
      "id": "ch-oberiberg",
      "name": "Oberiberg",
      "countryId": "switzerland",
      "timezone": "Europe/Zurich",
      "latitude": 47.0384,
      "longitude": 8.77917,
      "stationCount": 3
    },
    {
      "id": "ch-obersiggenthal",
      "name": "Obersiggenthal",
      "countryId": "switzerland",
      "timezone": "Europe/Zurich",
      "latitude": 47.4875,
      "longitude": 8.29652,
      "stationCount": 1
    },
    {
      "id": "ch-oberurnen",
      "name": "Oberurnen",
      "countryId": "switzerland",
      "timezone": "Europe/Zurich",
      "latitude": 47.11412,
      "longitude": 9.05866,
      "stationCount": 4
    },
    {
      "id": "ch-ochlenberg",
      "name": "Ochlenberg",
      "countryId": "switzerland",
      "timezone": "Europe/Zurich",
      "latitude": 47.14953,
      "longitude": 7.73603,
      "stationCount": 3
    },
    {
      "id": "ch-oftringen",
      "name": "Oftringen",
      "countryId": "switzerland",
      "timezone": "Europe/Zurich",
      "latitude": 47.31382,
      "longitude": 7.92533,
      "stationCount": 3
    },
    {
      "id": "ch-orsieres",
      "name": "Orsières",
      "countryId": "switzerland",
      "timezone": "Europe/Zurich",
      "latitude": 46.02903,
      "longitude": 7.14437,
      "stationCount": 5
    },
    {
      "id": "ch-orsieres-2",
      "name": "Orsières",
      "countryId": "switzerland",
      "timezone": "Europe/Zurich",
      "latitude": 46.02903,
      "longitude": 7.14437,
      "stationCount": 1
    },
    {
      "id": "ch-orvin",
      "name": "Orvin",
      "countryId": "switzerland",
      "timezone": "Europe/Zurich",
      "latitude": 47.16068,
      "longitude": 7.21368,
      "stationCount": 1
    },
    {
      "id": "ch-pery",
      "name": "Péry",
      "countryId": "switzerland",
      "timezone": "Europe/Zurich",
      "latitude": 47.19398,
      "longitude": 7.24913,
      "stationCount": 1
    },
    {
      "id": "ch-pery-2",
      "name": "Péry",
      "countryId": "switzerland",
      "timezone": "Europe/Zurich",
      "latitude": 47.19398,
      "longitude": 7.24913,
      "stationCount": 2
    },
    {
      "id": "ch-pfeffingen",
      "name": "Pfeffingen",
      "countryId": "switzerland",
      "timezone": "Europe/Zurich",
      "latitude": 47.45984,
      "longitude": 7.58975,
      "stationCount": 1
    },
    {
      "id": "ch-pianezzo",
      "name": "Pianezzo",
      "countryId": "switzerland",
      "timezone": "Europe/Zurich",
      "latitude": 46.17006,
      "longitude": 9.02522,
      "stationCount": 6
    },
    {
      "id": "ch-pieterlen",
      "name": "Pieterlen",
      "countryId": "switzerland",
      "timezone": "Europe/Zurich",
      "latitude": 47.17501,
      "longitude": 7.33791,
      "stationCount": 1
    },
    {
      "id": "ch-plaffeien",
      "name": "Plaffeien",
      "countryId": "switzerland",
      "timezone": "Europe/Zurich",
      "latitude": 46.74198,
      "longitude": 7.28666,
      "stationCount": 1
    },
    {
      "id": "ch-pontresina",
      "name": "Pontresina",
      "countryId": "switzerland",
      "timezone": "Europe/Zurich",
      "latitude": 46.4955,
      "longitude": 9.90126,
      "stationCount": 2
    },
    {
      "id": "ch-poschiavo",
      "name": "Poschiavo",
      "countryId": "switzerland",
      "timezone": "Europe/Zurich",
      "latitude": 46.32441,
      "longitude": 10.05823,
      "stationCount": 6
    },
    {
      "id": "ch-promontogno",
      "name": "Promontogno",
      "countryId": "switzerland",
      "timezone": "Europe/Zurich",
      "latitude": 46.33939,
      "longitude": 9.55759,
      "stationCount": 3
    },
    {
      "id": "ch-promontogno-2",
      "name": "Promontogno",
      "countryId": "switzerland",
      "timezone": "Europe/Zurich",
      "latitude": 46.33939,
      "longitude": 9.55759,
      "stationCount": 1
    },
    {
      "id": "ch-pura",
      "name": "Pura",
      "countryId": "switzerland",
      "timezone": "Europe/Zurich",
      "latitude": 45.98647,
      "longitude": 8.86877,
      "stationCount": 5
    },
    {
      "id": "ch-quarten",
      "name": "Quarten",
      "countryId": "switzerland",
      "timezone": "Europe/Zurich",
      "latitude": 47.107,
      "longitude": 9.24199,
      "stationCount": 7
    },
    {
      "id": "ch-reconvilier",
      "name": "Reconvilier",
      "countryId": "switzerland",
      "timezone": "Europe/Zurich",
      "latitude": 47.23431,
      "longitude": 7.22239,
      "stationCount": 5
    },
    {
      "id": "ch-rehetobel",
      "name": "Rehetobel",
      "countryId": "switzerland",
      "timezone": "Europe/Zurich",
      "latitude": 47.42611,
      "longitude": 9.483,
      "stationCount": 3
    },
    {
      "id": "ch-rhazuns",
      "name": "Rhäzüns",
      "countryId": "switzerland",
      "timezone": "Europe/Zurich",
      "latitude": 46.79891,
      "longitude": 9.39764,
      "stationCount": 2
    },
    {
      "id": "ch-rhazuns-2",
      "name": "Rhäzüns",
      "countryId": "switzerland",
      "timezone": "Europe/Zurich",
      "latitude": 46.79891,
      "longitude": 9.39764,
      "stationCount": 6
    },
    {
      "id": "ch-rochefort",
      "name": "Rochefort",
      "countryId": "switzerland",
      "timezone": "Europe/Zurich",
      "latitude": 46.97768,
      "longitude": 6.80835,
      "stationCount": 1
    },
    {
      "id": "ch-rodersdorf",
      "name": "Rodersdorf",
      "countryId": "switzerland",
      "timezone": "Europe/Zurich",
      "latitude": 47.48082,
      "longitude": 7.45767,
      "stationCount": 3
    },
    {
      "id": "ch-root",
      "name": "Root",
      "countryId": "switzerland",
      "timezone": "Europe/Zurich",
      "latitude": 47.11458,
      "longitude": 8.39021,
      "stationCount": 3
    },
    {
      "id": "ch-rorschach",
      "name": "Rorschach",
      "countryId": "switzerland",
      "timezone": "Europe/Zurich",
      "latitude": 47.478,
      "longitude": 9.4903,
      "stationCount": 2
    },
    {
      "id": "ch-rudolfstetten",
      "name": "Rudolfstetten",
      "countryId": "switzerland",
      "timezone": "Europe/Zurich",
      "latitude": 47.37101,
      "longitude": 8.38083,
      "stationCount": 2
    },
    {
      "id": "ch-rueun",
      "name": "Rueun",
      "countryId": "switzerland",
      "timezone": "Europe/Zurich",
      "latitude": 46.77783,
      "longitude": 9.1484,
      "stationCount": 5
    },
    {
      "id": "ch-ruthi",
      "name": "Rüthi",
      "countryId": "switzerland",
      "timezone": "Europe/Zurich",
      "latitude": 47.2948,
      "longitude": 9.53857,
      "stationCount": 5
    },
    {
      "id": "ch-saanen",
      "name": "Saanen",
      "countryId": "switzerland",
      "timezone": "Europe/Zurich",
      "latitude": 46.48945,
      "longitude": 7.26003,
      "stationCount": 1
    },
    {
      "id": "ch-saas-im-prattigau",
      "name": "Saas im Prättigau",
      "countryId": "switzerland",
      "timezone": "Europe/Zurich",
      "latitude": 46.91018,
      "longitude": 9.80865,
      "stationCount": 4
    },
    {
      "id": "ch-saas-fee",
      "name": "Saas-Fee",
      "countryId": "switzerland",
      "timezone": "Europe/Zurich",
      "latitude": 46.10805,
      "longitude": 7.92741,
      "stationCount": 3
    },
    {
      "id": "ch-saas-fee-2",
      "name": "Saas-Fee",
      "countryId": "switzerland",
      "timezone": "Europe/Zurich",
      "latitude": 46.10805,
      "longitude": 7.92741,
      "stationCount": 1
    },
    {
      "id": "ch-saas-grund",
      "name": "Saas-Grund",
      "countryId": "switzerland",
      "timezone": "Europe/Zurich",
      "latitude": 46.12281,
      "longitude": 7.93651,
      "stationCount": 5
    },
    {
      "id": "ch-saas-grund-2",
      "name": "Saas-Grund",
      "countryId": "switzerland",
      "timezone": "Europe/Zurich",
      "latitude": 46.12281,
      "longitude": 7.93651,
      "stationCount": 1
    },
    {
      "id": "ch-saas-grund-3",
      "name": "Saas-Grund",
      "countryId": "switzerland",
      "timezone": "Europe/Zurich",
      "latitude": 46.12281,
      "longitude": 7.93651,
      "stationCount": 1
    },
    {
      "id": "ch-sachseln",
      "name": "Sachseln",
      "countryId": "switzerland",
      "timezone": "Europe/Zurich",
      "latitude": 46.86718,
      "longitude": 8.23344,
      "stationCount": 3
    },
    {
      "id": "ch-saint-cergue",
      "name": "Saint-Cergue",
      "countryId": "switzerland",
      "timezone": "Europe/Zurich",
      "latitude": 46.4459,
      "longitude": 6.15737,
      "stationCount": 3
    },
    {
      "id": "ch-saint-gingolph",
      "name": "Saint-Gingolph",
      "countryId": "switzerland",
      "timezone": "Europe/Zurich",
      "latitude": 46.39217,
      "longitude": 6.80594,
      "stationCount": 5
    },
    {
      "id": "ch-saint-martin",
      "name": "Saint-Martin",
      "countryId": "switzerland",
      "timezone": "Europe/Zurich",
      "latitude": 46.1727,
      "longitude": 7.44427,
      "stationCount": 3
    },
    {
      "id": "ch-saint-maurice",
      "name": "Saint-Maurice",
      "countryId": "switzerland",
      "timezone": "Europe/Zurich",
      "latitude": 46.21826,
      "longitude": 7.0032,
      "stationCount": 1
    },
    {
      "id": "ch-sainte-croix",
      "name": "Sainte-Croix",
      "countryId": "switzerland",
      "timezone": "Europe/Zurich",
      "latitude": 46.82203,
      "longitude": 6.50283,
      "stationCount": 3
    },
    {
      "id": "ch-samnaun",
      "name": "Samnaun",
      "countryId": "switzerland",
      "timezone": "Europe/Zurich",
      "latitude": 46.94373,
      "longitude": 10.36058,
      "stationCount": 4
    },
    {
      "id": "ch-san-nazzaro",
      "name": "San Nazzaro",
      "countryId": "switzerland",
      "timezone": "Europe/Zurich",
      "latitude": 46.13161,
      "longitude": 8.80262,
      "stationCount": 6
    },
    {
      "id": "ch-san-vittore",
      "name": "San Vittore",
      "countryId": "switzerland",
      "timezone": "Europe/Zurich",
      "latitude": 46.23709,
      "longitude": 9.10684,
      "stationCount": 5
    },
    {
      "id": "ch-san-vittore-2",
      "name": "San Vittore",
      "countryId": "switzerland",
      "timezone": "Europe/Zurich",
      "latitude": 46.23709,
      "longitude": 9.10684,
      "stationCount": 5
    },
    {
      "id": "ch-san-vittore-3",
      "name": "San Vittore",
      "countryId": "switzerland",
      "timezone": "Europe/Zurich",
      "latitude": 46.23709,
      "longitude": 9.10684,
      "stationCount": 1
    },
    {
      "id": "ch-sankt-antoni",
      "name": "Sankt Antoni",
      "countryId": "switzerland",
      "timezone": "Europe/Zurich",
      "latitude": 46.82207,
      "longitude": 7.26091,
      "stationCount": 1
    },
    {
      "id": "ch-sankt-margrethen",
      "name": "Sankt Margrethen",
      "countryId": "switzerland",
      "timezone": "Europe/Zurich",
      "latitude": 47.45253,
      "longitude": 9.63741,
      "stationCount": 1
    },
    {
      "id": "ch-sankt-margrethen-2",
      "name": "Sankt Margrethen",
      "countryId": "switzerland",
      "timezone": "Europe/Zurich",
      "latitude": 47.45253,
      "longitude": 9.63741,
      "stationCount": 3
    },
    {
      "id": "ch-sargans",
      "name": "Sargans",
      "countryId": "switzerland",
      "timezone": "Europe/Zurich",
      "latitude": 47.04896,
      "longitude": 9.44103,
      "stationCount": 3
    },
    {
      "id": "ch-sargans-2",
      "name": "Sargans",
      "countryId": "switzerland",
      "timezone": "Europe/Zurich",
      "latitude": 47.04896,
      "longitude": 9.44103,
      "stationCount": 3
    },
    {
      "id": "ch-sarnen",
      "name": "Sarnen",
      "countryId": "switzerland",
      "timezone": "Europe/Zurich",
      "latitude": 46.89611,
      "longitude": 8.24531,
      "stationCount": 3
    },
    {
      "id": "ch-sarnen-2",
      "name": "Sarnen",
      "countryId": "switzerland",
      "timezone": "Europe/Zurich",
      "latitude": 46.89611,
      "longitude": 8.24531,
      "stationCount": 3
    },
    {
      "id": "ch-savognin",
      "name": "Savognin",
      "countryId": "switzerland",
      "timezone": "Europe/Zurich",
      "latitude": 46.59732,
      "longitude": 9.59816,
      "stationCount": 5
    },
    {
      "id": "ch-schaffhausen",
      "name": "Schaffhausen",
      "countryId": "switzerland",
      "timezone": "Europe/Zurich",
      "latitude": 47.69732,
      "longitude": 8.63493,
      "stationCount": 1
    },
    {
      "id": "ch-schangnau",
      "name": "Schangnau",
      "countryId": "switzerland",
      "timezone": "Europe/Zurich",
      "latitude": 46.82784,
      "longitude": 7.85987,
      "stationCount": 3
    },
    {
      "id": "ch-schleitheim",
      "name": "Schleitheim",
      "countryId": "switzerland",
      "timezone": "Europe/Zurich",
      "latitude": 47.74818,
      "longitude": 8.48213,
      "stationCount": 3
    },
    {
      "id": "ch-schleitheim-2",
      "name": "Schleitheim",
      "countryId": "switzerland",
      "timezone": "Europe/Zurich",
      "latitude": 47.74818,
      "longitude": 8.48213,
      "stationCount": 1
    },
    {
      "id": "ch-schupfheim",
      "name": "Schüpfheim",
      "countryId": "switzerland",
      "timezone": "Europe/Zurich",
      "latitude": 46.95161,
      "longitude": 8.01723,
      "stationCount": 4
    },
    {
      "id": "ch-schupfheim-2",
      "name": "Schüpfheim",
      "countryId": "switzerland",
      "timezone": "Europe/Zurich",
      "latitude": 46.95161,
      "longitude": 8.01723,
      "stationCount": 1
    },
    {
      "id": "ch-schwanden",
      "name": "Schwanden",
      "countryId": "switzerland",
      "timezone": "Europe/Zurich",
      "latitude": 46.99541,
      "longitude": 9.0701,
      "stationCount": 3
    },
    {
      "id": "ch-scuol",
      "name": "Scuol",
      "countryId": "switzerland",
      "timezone": "Europe/Zurich",
      "latitude": 46.79671,
      "longitude": 10.29804,
      "stationCount": 5
    },
    {
      "id": "ch-seedorf",
      "name": "Seedorf",
      "countryId": "switzerland",
      "timezone": "Europe/Zurich",
      "latitude": 47.03445,
      "longitude": 7.31249,
      "stationCount": 2
    },
    {
      "id": "ch-seftigen",
      "name": "Seftigen",
      "countryId": "switzerland",
      "timezone": "Europe/Zurich",
      "latitude": 46.78765,
      "longitude": 7.53937,
      "stationCount": 2
    },
    {
      "id": "ch-seglingen-ober-seglingen",
      "name": "Seglingen / Ober-Seglingen",
      "countryId": "switzerland",
      "timezone": "Europe/Zurich",
      "latitude": 47.57201,
      "longitude": 8.52695,
      "stationCount": 3
    },
    {
      "id": "ch-sellenburen",
      "name": "Sellenbüren",
      "countryId": "switzerland",
      "timezone": "Europe/Zurich",
      "latitude": 47.34361,
      "longitude": 8.48301,
      "stationCount": 8
    },
    {
      "id": "ch-sennwald",
      "name": "Sennwald",
      "countryId": "switzerland",
      "timezone": "Europe/Zurich",
      "latitude": 47.26063,
      "longitude": 9.50268,
      "stationCount": 4
    },
    {
      "id": "ch-sent",
      "name": "Sent",
      "countryId": "switzerland",
      "timezone": "Europe/Zurich",
      "latitude": 46.81717,
      "longitude": 10.33683,
      "stationCount": 5
    },
    {
      "id": "ch-sevelen",
      "name": "Sevelen",
      "countryId": "switzerland",
      "timezone": "Europe/Zurich",
      "latitude": 47.12213,
      "longitude": 9.48601,
      "stationCount": 5
    },
    {
      "id": "ch-silenen",
      "name": "Silenen",
      "countryId": "switzerland",
      "timezone": "Europe/Zurich",
      "latitude": 46.7891,
      "longitude": 8.67325,
      "stationCount": 4
    },
    {
      "id": "ch-silenen-2",
      "name": "Silenen",
      "countryId": "switzerland",
      "timezone": "Europe/Zurich",
      "latitude": 46.7891,
      "longitude": 8.67325,
      "stationCount": 1
    },
    {
      "id": "ch-sils-im-domleschg",
      "name": "Sils im Domleschg",
      "countryId": "switzerland",
      "timezone": "Europe/Zurich",
      "latitude": 46.70041,
      "longitude": 9.45404,
      "stationCount": 6
    },
    {
      "id": "ch-sils-segl-maria",
      "name": "Sils-Segl Maria",
      "countryId": "switzerland",
      "timezone": "Europe/Zurich",
      "latitude": 46.42886,
      "longitude": 9.76364,
      "stationCount": 5
    },
    {
      "id": "ch-sils-segl-maria-2",
      "name": "Sils-Segl Maria",
      "countryId": "switzerland",
      "timezone": "Europe/Zurich",
      "latitude": 46.42886,
      "longitude": 9.76364,
      "stationCount": 1
    },
    {
      "id": "ch-silvaplana",
      "name": "Silvaplana",
      "countryId": "switzerland",
      "timezone": "Europe/Zurich",
      "latitude": 46.4581,
      "longitude": 9.79514,
      "stationCount": 7
    },
    {
      "id": "ch-sissach",
      "name": "Sissach",
      "countryId": "switzerland",
      "timezone": "Europe/Zurich",
      "latitude": 47.46408,
      "longitude": 7.80888,
      "stationCount": 2
    },
    {
      "id": "ch-sissach-2",
      "name": "Sissach",
      "countryId": "switzerland",
      "timezone": "Europe/Zurich",
      "latitude": 47.46408,
      "longitude": 7.80888,
      "stationCount": 3
    },
    {
      "id": "ch-sorens",
      "name": "Sorens",
      "countryId": "switzerland",
      "timezone": "Europe/Zurich",
      "latitude": 46.6691,
      "longitude": 7.05249,
      "stationCount": 4
    },
    {
      "id": "ch-speicher",
      "name": "Speicher",
      "countryId": "switzerland",
      "timezone": "Europe/Zurich",
      "latitude": 47.4109,
      "longitude": 9.44335,
      "stationCount": 1
    },
    {
      "id": "ch-spiringen",
      "name": "Spiringen",
      "countryId": "switzerland",
      "timezone": "Europe/Zurich",
      "latitude": 46.87259,
      "longitude": 8.73017,
      "stationCount": 3
    },
    {
      "id": "ch-spiringen-2",
      "name": "Spiringen",
      "countryId": "switzerland",
      "timezone": "Europe/Zurich",
      "latitude": 46.87259,
      "longitude": 8.73017,
      "stationCount": 1
    },
    {
      "id": "ch-st-moritz",
      "name": "St. Moritz",
      "countryId": "switzerland",
      "timezone": "Europe/Zurich",
      "latitude": 46.49937,
      "longitude": 9.84327,
      "stationCount": 6
    },
    {
      "id": "ch-stampa",
      "name": "Stampa",
      "countryId": "switzerland",
      "timezone": "Europe/Zurich",
      "latitude": 46.3429,
      "longitude": 9.59072,
      "stationCount": 5
    },
    {
      "id": "ch-stampa-2",
      "name": "Stampa",
      "countryId": "switzerland",
      "timezone": "Europe/Zurich",
      "latitude": 46.3429,
      "longitude": 9.59072,
      "stationCount": 1
    },
    {
      "id": "ch-stein",
      "name": "Stein",
      "countryId": "switzerland",
      "timezone": "Europe/Zurich",
      "latitude": 47.54403,
      "longitude": 7.95256,
      "stationCount": 2
    },
    {
      "id": "ch-stettlen",
      "name": "Stettlen",
      "countryId": "switzerland",
      "timezone": "Europe/Zurich",
      "latitude": 46.95835,
      "longitude": 7.52508,
      "stationCount": 7
    },
    {
      "id": "ch-sumiswald",
      "name": "Sumiswald",
      "countryId": "switzerland",
      "timezone": "Europe/Zurich",
      "latitude": 47.02747,
      "longitude": 7.74526,
      "stationCount": 1
    },
    {
      "id": "ch-termen",
      "name": "Termen",
      "countryId": "switzerland",
      "timezone": "Europe/Zurich",
      "latitude": 46.32688,
      "longitude": 8.02097,
      "stationCount": 5
    },
    {
      "id": "ch-teufen",
      "name": "Teufen",
      "countryId": "switzerland",
      "timezone": "Europe/Zurich",
      "latitude": 47.3908,
      "longitude": 9.38644,
      "stationCount": 1
    },
    {
      "id": "ch-thal",
      "name": "Thal",
      "countryId": "switzerland",
      "timezone": "Europe/Zurich",
      "latitude": 47.46677,
      "longitude": 9.56643,
      "stationCount": 1
    },
    {
      "id": "ch-thal-2",
      "name": "Thal",
      "countryId": "switzerland",
      "timezone": "Europe/Zurich",
      "latitude": 47.46677,
      "longitude": 9.56643,
      "stationCount": 1
    },
    {
      "id": "ch-tiefencastel",
      "name": "Tiefencastel",
      "countryId": "switzerland",
      "timezone": "Europe/Zurich",
      "latitude": 46.66014,
      "longitude": 9.57883,
      "stationCount": 6
    },
    {
      "id": "ch-torbel",
      "name": "Törbel",
      "countryId": "switzerland",
      "timezone": "Europe/Zurich",
      "latitude": 46.23837,
      "longitude": 7.85239,
      "stationCount": 1
    },
    {
      "id": "ch-tramelan",
      "name": "Tramelan",
      "countryId": "switzerland",
      "timezone": "Europe/Zurich",
      "latitude": 47.22298,
      "longitude": 7.10287,
      "stationCount": 2
    },
    {
      "id": "ch-trimbach",
      "name": "Trimbach",
      "countryId": "switzerland",
      "timezone": "Europe/Zurich",
      "latitude": 47.36561,
      "longitude": 7.8868,
      "stationCount": 3
    },
    {
      "id": "ch-trub",
      "name": "Trub",
      "countryId": "switzerland",
      "timezone": "Europe/Zurich",
      "latitude": 46.94168,
      "longitude": 7.87996,
      "stationCount": 1
    },
    {
      "id": "ch-trun",
      "name": "Trun",
      "countryId": "switzerland",
      "timezone": "Europe/Zurich",
      "latitude": 46.74292,
      "longitude": 8.98716,
      "stationCount": 4
    },
    {
      "id": "ch-tuggen",
      "name": "Tuggen",
      "countryId": "switzerland",
      "timezone": "Europe/Zurich",
      "latitude": 47.20291,
      "longitude": 8.94896,
      "stationCount": 1
    },
    {
      "id": "ch-turbenthal",
      "name": "Turbenthal",
      "countryId": "switzerland",
      "timezone": "Europe/Zurich",
      "latitude": 47.43633,
      "longitude": 8.84629,
      "stationCount": 1
    },
    {
      "id": "ch-unteriberg",
      "name": "Unteriberg",
      "countryId": "switzerland",
      "timezone": "Europe/Zurich",
      "latitude": 47.06258,
      "longitude": 8.8052,
      "stationCount": 4
    },
    {
      "id": "ch-untervaz",
      "name": "Untervaz",
      "countryId": "switzerland",
      "timezone": "Europe/Zurich",
      "latitude": 46.9275,
      "longitude": 9.53422,
      "stationCount": 3
    },
    {
      "id": "ch-unterwasser",
      "name": "Unterwasser",
      "countryId": "switzerland",
      "timezone": "Europe/Zurich",
      "latitude": 47.197,
      "longitude": 9.30856,
      "stationCount": 4
    },
    {
      "id": "ch-urnasch",
      "name": "Urnäsch",
      "countryId": "switzerland",
      "timezone": "Europe/Zurich",
      "latitude": 47.31669,
      "longitude": 9.2795,
      "stationCount": 1
    },
    {
      "id": "ch-urtenen",
      "name": "Urtenen",
      "countryId": "switzerland",
      "timezone": "Europe/Zurich",
      "latitude": 47.02667,
      "longitude": 7.50081,
      "stationCount": 2
    },
    {
      "id": "ch-vals-platz",
      "name": "Vals Platz",
      "countryId": "switzerland",
      "timezone": "Europe/Zurich",
      "latitude": 46.61647,
      "longitude": 9.18025,
      "stationCount": 4
    },
    {
      "id": "ch-vals-platz-2",
      "name": "Vals Platz",
      "countryId": "switzerland",
      "timezone": "Europe/Zurich",
      "latitude": 46.61647,
      "longitude": 9.18025,
      "stationCount": 4
    },
    {
      "id": "ch-vals-platz-3",
      "name": "Vals Platz",
      "countryId": "switzerland",
      "timezone": "Europe/Zurich",
      "latitude": 46.61647,
      "longitude": 9.18025,
      "stationCount": 1
    },
    {
      "id": "ch-varen",
      "name": "Varen",
      "countryId": "switzerland",
      "timezone": "Europe/Zurich",
      "latitude": 46.3186,
      "longitude": 7.60743,
      "stationCount": 1
    },
    {
      "id": "ch-veyrier",
      "name": "Veyrier",
      "countryId": "switzerland",
      "timezone": "Europe/Zurich",
      "latitude": 46.16699,
      "longitude": 6.18436,
      "stationCount": 7
    },
    {
      "id": "ch-villars-burquin",
      "name": "Villars-Burquin",
      "countryId": "switzerland",
      "timezone": "Europe/Zurich",
      "latitude": 46.84877,
      "longitude": 6.62763,
      "stationCount": 2
    },
    {
      "id": "ch-villars-sur-glane",
      "name": "Villars-sur-Glâne",
      "countryId": "switzerland",
      "timezone": "Europe/Zurich",
      "latitude": 46.79054,
      "longitude": 7.11717,
      "stationCount": 1
    },
    {
      "id": "ch-villars-sur-ollon",
      "name": "Villars-sur-Ollon",
      "countryId": "switzerland",
      "timezone": "Europe/Zurich",
      "latitude": 46.29832,
      "longitude": 7.05631,
      "stationCount": 5
    },
    {
      "id": "ch-villars-sur-ollon-2",
      "name": "Villars-sur-Ollon",
      "countryId": "switzerland",
      "timezone": "Europe/Zurich",
      "latitude": 46.29832,
      "longitude": 7.05631,
      "stationCount": 4
    },
    {
      "id": "ch-villeret",
      "name": "Villeret",
      "countryId": "switzerland",
      "timezone": "Europe/Zurich",
      "latitude": 47.15838,
      "longitude": 7.01889,
      "stationCount": 2
    },
    {
      "id": "ch-visperterminen",
      "name": "Visperterminen",
      "countryId": "switzerland",
      "timezone": "Europe/Zurich",
      "latitude": 46.25899,
      "longitude": 7.90192,
      "stationCount": 5
    },
    {
      "id": "ch-visperterminen-2",
      "name": "Visperterminen",
      "countryId": "switzerland",
      "timezone": "Europe/Zurich",
      "latitude": 46.25899,
      "longitude": 7.90192,
      "stationCount": 5
    },
    {
      "id": "ch-visperterminen-3",
      "name": "Visperterminen",
      "countryId": "switzerland",
      "timezone": "Europe/Zurich",
      "latitude": 46.25899,
      "longitude": 7.90192,
      "stationCount": 1
    },
    {
      "id": "ch-wagenhausen",
      "name": "Wagenhausen",
      "countryId": "switzerland",
      "timezone": "Europe/Zurich",
      "latitude": 47.66003,
      "longitude": 8.84782,
      "stationCount": 1
    },
    {
      "id": "ch-waldstatt",
      "name": "Waldstatt",
      "countryId": "switzerland",
      "timezone": "Europe/Zurich",
      "latitude": 47.35627,
      "longitude": 9.28345,
      "stationCount": 1
    },
    {
      "id": "ch-wattwil",
      "name": "Wattwil",
      "countryId": "switzerland",
      "timezone": "Europe/Zurich",
      "latitude": 47.29955,
      "longitude": 9.08657,
      "stationCount": 3
    },
    {
      "id": "ch-weesen",
      "name": "Weesen",
      "countryId": "switzerland",
      "timezone": "Europe/Zurich",
      "latitude": 47.13447,
      "longitude": 9.09644,
      "stationCount": 2
    },
    {
      "id": "ch-welschenrohr",
      "name": "Welschenrohr",
      "countryId": "switzerland",
      "timezone": "Europe/Zurich",
      "latitude": 47.28052,
      "longitude": 7.52664,
      "stationCount": 3
    },
    {
      "id": "ch-welschenrohr-2",
      "name": "Welschenrohr",
      "countryId": "switzerland",
      "timezone": "Europe/Zurich",
      "latitude": 47.28052,
      "longitude": 7.52664,
      "stationCount": 1
    },
    {
      "id": "ch-wernetshausen",
      "name": "Wernetshausen",
      "countryId": "switzerland",
      "timezone": "Europe/Zurich",
      "latitude": 47.29914,
      "longitude": 8.86462,
      "stationCount": 1
    },
    {
      "id": "ch-wernetshausen-2",
      "name": "Wernetshausen",
      "countryId": "switzerland",
      "timezone": "Europe/Zurich",
      "latitude": 47.29914,
      "longitude": 8.86462,
      "stationCount": 2
    },
    {
      "id": "ch-wil",
      "name": "Wil",
      "countryId": "switzerland",
      "timezone": "Europe/Zurich",
      "latitude": 47.46152,
      "longitude": 9.04552,
      "stationCount": 1
    },
    {
      "id": "ch-wilchingen",
      "name": "Wilchingen",
      "countryId": "switzerland",
      "timezone": "Europe/Zurich",
      "latitude": 47.66745,
      "longitude": 8.46774,
      "stationCount": 3
    },
    {
      "id": "ch-wildhaus",
      "name": "Wildhaus",
      "countryId": "switzerland",
      "timezone": "Europe/Zurich",
      "latitude": 47.20583,
      "longitude": 9.35402,
      "stationCount": 5
    },
    {
      "id": "ch-wiler",
      "name": "Wiler",
      "countryId": "switzerland",
      "timezone": "Europe/Zurich",
      "latitude": 46.40315,
      "longitude": 7.78161,
      "stationCount": 1
    },
    {
      "id": "ch-wiler-2",
      "name": "Wiler",
      "countryId": "switzerland",
      "timezone": "Europe/Zurich",
      "latitude": 46.40315,
      "longitude": 7.78161,
      "stationCount": 3
    },
    {
      "id": "ch-willisau",
      "name": "Willisau",
      "countryId": "switzerland",
      "timezone": "Europe/Zurich",
      "latitude": 47.12183,
      "longitude": 7.99418,
      "stationCount": 4
    },
    {
      "id": "ch-wimmis",
      "name": "Wimmis",
      "countryId": "switzerland",
      "timezone": "Europe/Zurich",
      "latitude": 46.67587,
      "longitude": 7.63972,
      "stationCount": 1
    },
    {
      "id": "ch-winikon",
      "name": "Winikon",
      "countryId": "switzerland",
      "timezone": "Europe/Zurich",
      "latitude": 47.236,
      "longitude": 8.04827,
      "stationCount": 3
    },
    {
      "id": "ch-wittenbach",
      "name": "Wittenbach",
      "countryId": "switzerland",
      "timezone": "Europe/Zurich",
      "latitude": 47.46108,
      "longitude": 9.38601,
      "stationCount": 7
    },
    {
      "id": "ch-wolflinswil",
      "name": "Wölflinswil",
      "countryId": "switzerland",
      "timezone": "Europe/Zurich",
      "latitude": 47.4607,
      "longitude": 7.99835,
      "stationCount": 2
    },
    {
      "id": "ch-wolhusen",
      "name": "Wolhusen",
      "countryId": "switzerland",
      "timezone": "Europe/Zurich",
      "latitude": 47.05983,
      "longitude": 8.07389,
      "stationCount": 4
    },
    {
      "id": "ch-wulflingen-kreis-6-oberfeld",
      "name": "Wülflingen (Kreis 6) / Oberfeld",
      "countryId": "switzerland",
      "timezone": "Europe/Zurich",
      "latitude": 47.49873,
      "longitude": 8.69897,
      "stationCount": 6
    },
    {
      "id": "ch-wurenlos",
      "name": "Würenlos",
      "countryId": "switzerland",
      "timezone": "Europe/Zurich",
      "latitude": 47.44205,
      "longitude": 8.36261,
      "stationCount": 1
    },
    {
      "id": "ch-wyssachen",
      "name": "Wyssachen",
      "countryId": "switzerland",
      "timezone": "Europe/Zurich",
      "latitude": 47.07851,
      "longitude": 7.82922,
      "stationCount": 3
    },
    {
      "id": "ch-zermatt",
      "name": "Zermatt",
      "countryId": "switzerland",
      "timezone": "Europe/Zurich",
      "latitude": 46.01998,
      "longitude": 7.74863,
      "stationCount": 3
    },
    {
      "id": "ch-zermatt-2",
      "name": "Zermatt",
      "countryId": "switzerland",
      "timezone": "Europe/Zurich",
      "latitude": 46.01998,
      "longitude": 7.74863,
      "stationCount": 1
    },
    {
      "id": "ch-zernez",
      "name": "Zernez",
      "countryId": "switzerland",
      "timezone": "Europe/Zurich",
      "latitude": 46.69862,
      "longitude": 10.09268,
      "stationCount": 4
    },
    {
      "id": "ch-zernez-2",
      "name": "Zernez",
      "countryId": "switzerland",
      "timezone": "Europe/Zurich",
      "latitude": 46.69862,
      "longitude": 10.09268,
      "stationCount": 1
    },
    {
      "id": "ch-zug",
      "name": "Zug",
      "countryId": "switzerland",
      "timezone": "Europe/Zurich",
      "latitude": 47.17242,
      "longitude": 8.51745,
      "stationCount": 3
    },
    {
      "id": "ch-zurich-kreis-4-werd",
      "name": "Zürich (Kreis 4) / Werd",
      "countryId": "switzerland",
      "timezone": "Europe/Zurich",
      "latitude": 47.37178,
      "longitude": 8.52584,
      "stationCount": 1
    },
    {
      "id": "ch-zurich-kreis-7-fluntern",
      "name": "Zürich (Kreis 7) / Fluntern",
      "countryId": "switzerland",
      "timezone": "Europe/Zurich",
      "latitude": 47.38013,
      "longitude": 8.56133,
      "stationCount": 5
    },
    {
      "id": "ch-zurich-kreis-11-oerlikon",
      "name": "Zürich (Kreis 11) / Oerlikon",
      "countryId": "switzerland",
      "timezone": "Europe/Zurich",
      "latitude": 47.40823,
      "longitude": 8.54258,
      "stationCount": 1
    },
    {
      "id": "ch-zweisimmen",
      "name": "Zweisimmen",
      "countryId": "switzerland",
      "timezone": "Europe/Zurich",
      "latitude": 46.55539,
      "longitude": 7.37302,
      "stationCount": 3
    }
  ],
  "stations": [
    {
      "id": "ch-aarau-radio-32-97-7",
      "name": "Radio 32",
      "freqMhz": 97.7,
      "cityId": "ch-aarau",
      "description": "Swiss FM assignment listed by BAKOM for AARAU OBERHOLZ. Program: Radio 32. Call sign: AAOB0977. Canton: AG. Horizontal ERP: 0 W.",
      "tags": [
        "fm",
        "official",
        "bakom",
        "switzerland",
        "ag",
        "aaob0977"
      ],
      "source": "BAKOM FM coordination archive",
      "sourceUrl": "https://www.bakom.admin.ch/en/location-of-radio-transmitters",
      "verifiedAt": "2026-03-24",
      "curated": false
    },
    {
      "id": "ch-acquarossa-radio-rumantsch-90-9",
      "name": "Radio Rumantsch",
      "freqMhz": 90.9,
      "cityId": "ch-acquarossa",
      "description": "Swiss FM assignment listed by BAKOM for OLIVONE FOPP. Program: Radio Rumantsch. Call sign: OLFO0909. Canton: TI. Horizontal ERP: 0 W.",
      "tags": [
        "fm",
        "official",
        "bakom",
        "switzerland",
        "ti",
        "olfo0909"
      ],
      "source": "BAKOM FM coordination archive",
      "sourceUrl": "https://www.bakom.admin.ch/en/location-of-radio-transmitters",
      "verifiedAt": "2026-03-24",
      "curated": false
    },
    {
      "id": "ch-acquarossa-rete-uno-93-2",
      "name": "Rete Uno",
      "freqMhz": 93.2,
      "cityId": "ch-acquarossa",
      "description": "Swiss FM assignment listed by BAKOM for OLIVONE FOPP. Program: Rete Uno. Call sign: OLFO0932. Canton: TI. Horizontal ERP: 0 W.",
      "tags": [
        "fm",
        "official",
        "bakom",
        "switzerland",
        "ti",
        "olfo0932"
      ],
      "source": "BAKOM FM coordination archive",
      "sourceUrl": "https://www.bakom.admin.ch/en/location-of-radio-transmitters",
      "verifiedAt": "2026-03-24",
      "curated": false
    },
    {
      "id": "ch-acquarossa-srf-1-96-6",
      "name": "SRF 1",
      "freqMhz": 96.6,
      "cityId": "ch-acquarossa",
      "description": "Swiss FM assignment listed by BAKOM for OLIVONE FOPP. Program: SRF 1. Call sign: OLFO0966. Canton: TI. Horizontal ERP: 0 W.",
      "tags": [
        "fm",
        "official",
        "bakom",
        "switzerland",
        "ti",
        "olfo0966"
      ],
      "source": "BAKOM FM coordination archive",
      "sourceUrl": "https://www.bakom.admin.ch/en/location-of-radio-transmitters",
      "verifiedAt": "2026-03-24",
      "curated": false
    },
    {
      "id": "ch-adelboden-srf-1-88-1",
      "name": "SRF 1",
      "freqMhz": 88.1,
      "cityId": "ch-adelboden",
      "description": "Swiss FM assignment listed by BAKOM for ADELBODEN WINTERTAL. Program: SRF 1. Call sign: ADBD0881. Canton: BE. Horizontal ERP: 0 W.",
      "tags": [
        "fm",
        "official",
        "bakom",
        "switzerland",
        "be",
        "adbd0881"
      ],
      "source": "BAKOM FM coordination archive",
      "sourceUrl": "https://www.bakom.admin.ch/en/location-of-radio-transmitters",
      "verifiedAt": "2026-03-24",
      "curated": false
    },
    {
      "id": "ch-adelboden-srf-2-kultur-90-2",
      "name": "SRF 2 Kultur",
      "freqMhz": 90.2,
      "cityId": "ch-adelboden",
      "description": "Swiss FM assignment listed by BAKOM for ADELBODEN WINTERTAL. Program: SRF 2 Kultur. Call sign: ADBD0902. Canton: BE. Horizontal ERP: 0 W.",
      "tags": [
        "fm",
        "official",
        "bakom",
        "switzerland",
        "be",
        "adbd0902"
      ],
      "source": "BAKOM FM coordination archive",
      "sourceUrl": "https://www.bakom.admin.ch/en/location-of-radio-transmitters",
      "verifiedAt": "2026-03-24",
      "curated": false
    },
    {
      "id": "ch-adelboden-srf-3-104-9",
      "name": "SRF 3",
      "freqMhz": 104.9,
      "cityId": "ch-adelboden",
      "description": "Swiss FM assignment listed by BAKOM for ADELBODEN WINTERTAL. Program: SRF 3. Call sign: ADBD1049. Canton: BE. Horizontal ERP: 0 W.",
      "tags": [
        "fm",
        "official",
        "bakom",
        "switzerland",
        "be",
        "adbd1049"
      ],
      "source": "BAKOM FM coordination archive",
      "sourceUrl": "https://www.bakom.admin.ch/en/location-of-radio-transmitters",
      "verifiedAt": "2026-03-24",
      "curated": false
    },
    {
      "id": "ch-adelboden-2-radio-beo-95-7",
      "name": "Radio BeO",
      "freqMhz": 95.7,
      "cityId": "ch-adelboden-2",
      "description": "Swiss FM assignment listed by BAKOM for FRUTIGEN HOECHST. Program: Radio BeO. Call sign: FRHO0957. Canton: BE. Horizontal ERP: 0 W.",
      "tags": [
        "fm",
        "official",
        "bakom",
        "switzerland",
        "be",
        "frho0957"
      ],
      "source": "BAKOM FM coordination archive",
      "sourceUrl": "https://www.bakom.admin.ch/en/location-of-radio-transmitters",
      "verifiedAt": "2026-03-24",
      "curated": false
    },
    {
      "id": "ch-aesch-srf-1-96-7",
      "name": "SRF 1",
      "freqMhz": 96.7,
      "cityId": "ch-aesch",
      "description": "Swiss FM assignment listed by BAKOM for AESCH HAUPTSTRASSE. Program: SRF 1. Call sign: AETZ0967. Canton: BL. Horizontal ERP: 0 W.",
      "tags": [
        "fm",
        "official",
        "bakom",
        "switzerland",
        "bl",
        "aetz0967"
      ],
      "source": "BAKOM FM coordination archive",
      "sourceUrl": "https://www.bakom.admin.ch/en/location-of-radio-transmitters",
      "verifiedAt": "2026-03-24",
      "curated": false
    },
    {
      "id": "ch-agarn-srf-1-88-2",
      "name": "SRF 1",
      "freqMhz": 88.2,
      "cityId": "ch-agarn",
      "description": "Swiss FM assignment listed by BAKOM for GUTTET FESCHEL WILERZAELG. Program: SRF 1. Call sign: FESL0882. Canton: VS. Horizontal ERP: 1500 W.",
      "tags": [
        "fm",
        "official",
        "bakom",
        "switzerland",
        "vs",
        "fesl0882"
      ],
      "source": "BAKOM FM coordination archive",
      "sourceUrl": "https://www.bakom.admin.ch/en/location-of-radio-transmitters",
      "verifiedAt": "2026-03-24",
      "curated": false
    },
    {
      "id": "ch-agarn-srf-2-kultur-90-3",
      "name": "SRF 2 Kultur",
      "freqMhz": 90.3,
      "cityId": "ch-agarn",
      "description": "Swiss FM assignment listed by BAKOM for GUTTET FESCHEL WILERZAELG. Program: SRF 2 Kultur. Call sign: FESL0903. Canton: VS. Horizontal ERP: 1500 W.",
      "tags": [
        "fm",
        "official",
        "bakom",
        "switzerland",
        "vs",
        "fesl0903"
      ],
      "source": "BAKOM FM coordination archive",
      "sourceUrl": "https://www.bakom.admin.ch/en/location-of-radio-transmitters",
      "verifiedAt": "2026-03-24",
      "curated": false
    },
    {
      "id": "ch-agarn-la-premiere-91-4",
      "name": "La Première",
      "freqMhz": 91.4,
      "cityId": "ch-agarn",
      "description": "Swiss FM assignment listed by BAKOM for GUTTET FESCHEL WILERZAELG. Program: La Première. Call sign: FESL0914. Canton: VS. Horizontal ERP: 1500 W.",
      "tags": [
        "fm",
        "official",
        "bakom",
        "switzerland",
        "vs",
        "fesl0914"
      ],
      "source": "BAKOM FM coordination archive",
      "sourceUrl": "https://www.bakom.admin.ch/en/location-of-radio-transmitters",
      "verifiedAt": "2026-03-24",
      "curated": false
    },
    {
      "id": "ch-agarn-espace-2-96-1",
      "name": "Espace 2",
      "freqMhz": 96.1,
      "cityId": "ch-agarn",
      "description": "Swiss FM assignment listed by BAKOM for GUTTET FESCHEL WILERZAELG. Program: Espace 2. Call sign: FESL0961. Canton: VS. Horizontal ERP: 1500 W.",
      "tags": [
        "fm",
        "official",
        "bakom",
        "switzerland",
        "vs",
        "fesl0961"
      ],
      "source": "BAKOM FM coordination archive",
      "sourceUrl": "https://www.bakom.admin.ch/en/location-of-radio-transmitters",
      "verifiedAt": "2026-03-24",
      "curated": false
    },